timestamp,gyro_rad[0],gyro_rad[1],gyro_rad[2],gyro_integral_dt,accelerometer_timestamp_relative,accelerometer_m_s2[0],accelerometer_m_s2[1],accelerometer_m_s2[2],accelerometer_integral_dt
362153463,0.0018813,-0.00209879,0.00140267,4000,0,-0.0589635,-0.0217894,-9.77462,4000
362157464,0.00178029,-0.00231346,0.00128999,4001,0,-0.0364738,-0.0171972,-9.76094,4001
362161463,0.000386424,-0.00327258,0.000231084,3999,0,-0.115363,0.0178638,-9.77901,3999
362165461,0.000380611,0.00395527,0.00761882,3998,0,0.0292451,-0.0779368,-9.62836,3998
362170235,-0.00647212,0.00865821,0.0114242,4774,0,-0.00906405,0.0446946,-9.66663,4774
362174283,0.0176015,-0.0206402,0.0156999,4048,0,-0.0667289,-0.25819,-10.2724,4048
362178283,-0.0432263,0.0123448,-0.0116149,4000,0,0.455831,-0.0692541,-10.1801,4000
362182284,0.0137709,-0.0269103,-0.0117046,4001,0,-0.512498,1.00267,-9.72465,4001
362186284,0.0534779,-0.00337149,-0.0195431,4000,0,0.733505,-1.05049,-8.94856,4000
362190285,-0.0150059,0.00165074,-0.0449874,4001,0,-1.63766,0.587811,-9.68551,4001
362194236,-0.0461932,-0.0231657,-0.00609634,3951,0,1.51359,-0.350312,-9.01416,3951
362198235,0.0111198,0.00689202,-0.0484881,3999,0,-1.05522,-0.278002,-11.5657,3999
362202283,0.0376215,0.0217951,-0.0401956,4048,0,-0.398474,-0.0298619,-10.5785,4048
362206282,-0.0220303,-0.0236946,0.00422876,3999,0,1.09561,-0.0986984,-8.71657,3999
362210234,0.0201415,-0.00594909,-0.0136006,3952,0,-0.83653,0.606049,-9.28834,3952
362214235,-0.0152325,0.0170707,0.0128519,4001,0,-0.0112546,-1.2426,-9.21339,4001
362219082,-0.0293862,0.00948382,0.0439992,4847,0,0.415458,0.557192,-10.4344,4847
362223082,0.017138,-0.00155663,0.0413685,4000,0,-0.369163,0.428742,-11.4451,4000
362227081,-0.0176889,0.00689457,0.0408771,3999,0,-0.027358,-0.976832,-9.41064,3999
362231080,-0.0159411,0.0206005,0.0583194,3999,0,-0.0789377,-0.0350566,-9.09992,3999
362235079,-0.00259993,0.0030414,0.0327713,3999,0,-0.561633,0.102199,-9.3441,3999
362239081,-0.0517507,0.0271947,0.0368795,4002,0,-0.0432776,-0.348375,-9.76567,4002
362243086,-0.00723148,0.0328501,0.00435696,4005,0,-0.375753,0.612195,-9.97762,4005
362247079,0.0277463,-0.00384558,0.0132603,3993,0,0.0318734,0.400818,-9.60928,3993
362251080,0.00570159,0.0319003,0.0142395,4001,0,-0.825083,-0.908926,-9.83752,4001
362255878,-0.0134893,0.0702359,0.0128439,4798,0,0.696973,0.59937,-9.21132,4798
362259881,0.0156562,-0.0116738,0.0165707,4003,0,1.1908,0.0737098,-9.40712,4003
362263883,-0.012128,-0.00556197,0.00275799,4002,0,-0.498478,-0.167651,-11.3123,4002
362267879,-0.0233331,0.0391218,-0.0405771,3996,0,0.262363,0.422865,-10.7566,3996
362271881,-0.00810046,-0.00840141,-0.0376006,4002,0,0.238491,-0.309989,-10.0754,4002
362275881,0.0257351,0.0334458,-0.0357704,4000,0,-1.93376,0.342917,-9.57044,4000
362279879,0.0194847,0.0646454,-0.0254751,3998,0,0.531623,-0.703133,-8.22904,3998
362283880,0.0288492,-0.0388772,0.0144927,4001,0,1.17621,-0.837085,-8.10129,4001
362287876,-0.0232695,-0.0282312,0.0238069,3996,0,-0.932971,-0.371476,-10.4093,3996
362291883,-0.0859366,0.0691709,-0.0354938,4007,0,0.0477608,1.27712,-11.4738,4007
362295880,0.0327177,-0.0478475,-0.0039443,3997,0,2.52629,0.569909,-10.8927,3997
362300677,0.0196144,-0.0292572,-0.0114187,4797,0,-3.06057,-0.70545,-9.96484,4797
362304676,-0.0481585,0.151123,-0.000402416,3999,0,1.39707,0.14262,-7.45743,3999
362308676,0.0754535,-0.0984125,0.0782695,4000,0,4.00797,-0.61302,-6.73875,4000
362312676,-0.0866956,-0.143503,0.00863372,4000,0,-3.37573,-1.54985,-10.5731,4000
362316646,-0.126507,0.11536,-0.0208751,3970,0,-0.40167,3.37397,-13.2656,3970
362320678,0.131422,-0.0721633,0.0182131,4032,0,2.06347,-1.17668,-11.1399,4032
362324677,-0.0427055,-0.049153,-0.0263514,3999,0,-3.68495,-1.90214,-9.83197,3999
362328679,-0.0650003,0.0739803,0.0606099,4002,0,3.53659,3.51566,-6.94315,4002
362332677,0.176613,-0.155866,0.0425562,3998,0,0.789205,-4.80059,-7.52479,3998
362336678,-0.197617,-0.0618008,-0.0651325,4001,0,-2.62957,2.45248,-10.2975,4001
362341480,0.020616,-0.0286325,0.00389642,4802,0,1.10698,2.48626,-12.4303,4802
362345477,0.0678559,0.00044586,-0.029652,3997,0,-1.88208,-5.63404,-11.0168,3997
362349480,-0.0481877,0.115864,-0.0105233,4003,0,2.01899,4.73384,-8.5479,4003
362353479,0.196378,-0.20526,0.0541996,3999,0,1.31077,-4.28124,-7.43725,3999
362357441,-0.168189,-0.0403159,-0.120419,3962,0,-4.13072,1.2425,-9.00349,3962
362361477,-0.0994827,0.0112346,0.0360481,4036,0,0.572538,4.93708,-11.7878,4036
362365479,0.140721,0.0571457,-0.0161466,4002,0,0.622783,-7.12607,-9.47146,4002
362369479,-0.0396192,0.0207657,-0.0440693,4000,0,0.932753,5.10718,-9.49527,4000
362373476,0.126291,-0.226367,0.155244,3997,0,0.483064,-2.90679,-11.3984,3997
362377476,-0.144353,-0.0154068,-0.177469,4000,0,-2.78609,-0.524026,-8.28197,4000
362381478,-0.0538308,0.0215557,0.0791206,4002,0,0.118293,5.38464,-9.28221,4002
362385477,0.137129,0.0281205,-0.0238445,3999,0,1.01552,-7.22139,-9.27375,3999
362389477,-0.0619503,0.0219486,-0.0124701,4000,0,1.95529,5.53281,-8.46902,4000
362393477,0.0881011,-0.244425,0.148055,4000,0,0.216762,-4.58043,-12.198,4000
362397481,-0.155667,0.0075377,-0.165976,4004,0,-3.72801,2.51195,-10.914,4004
362402261,0.11035,0.0788102,0.0444188,4780,0,-0.126168,-0.750919,-9.59367,4780
362406238,-0.0274791,-0.121439,-0.00575941,3977,0,3.30641,-0.824052,-7.85626,3977
362410263,0.0269642,-0.0589098,0.104669,4025,0,-0.189868,2.43875,-10.741,4025
362414275,-0.0314995,-0.148117,-0.0725665,4012,0,-0.279882,-3.77676,-8.67708,4012
362418281,-0.14142,0.129359,-0.0359171,4006,0,-5.18596,5.46633,-12.6197,4006
362422276,0.153067,0.105188,0.0353704,3995,0,3.44399,-4.67678,-8.21012,3995
362426281,0.0518999,-0.128397,-0.0327381,4005,0,1.3391,3.56994,-9.60206,4005
362430278,-0.00871551,-0.162872,0.112801,3997,0,0.408834,-3.74563,-9.74881,3997
362434276,-0.110435,-0.0207445,-0.124712,3998,0,-2.79914,3.15139,-9.67314,3998
362438276,-0.00635569,0.211912,-0.0338632,4000,0,-4.38944,-0.558439,-9.88826,4000
362442281,0.0544519,0.0593021,0.0611022,4005,0,7.30351,-1.30583,-8.58494,4005
362446283,0.0920915,-0.0636397,-0.0412383,4002,0,-2.12156,1.36905,-10.632,4002
362451061,-0.0401897,-0.0972973,0.0205717,4778,0,-0.0399886,-0.656095,-9.62897,4778
362455060,-0.0944529,0.131718,-0.0853152,3999,0,-5.61334,0.22386,-11.4574,3999
362459062,0.036633,0.170279,0.0264574,4002,0,3.51397,-1.11545,-8.50292,4002
362463060,0.00392094,-0.0107368,0.0175991,3998,0,2.37034,1.37771,-8.10405,3998
362467071,0.00700708,-0.186819,0.0303776,4011,0,0.232004,-2.23789,-12.0741,4011
362471063,-0.0620716,0.129253,-0.0271089,3992,0,-4.18279,0.761959,-9.36993,3992
362475062,-0.0361709,0.224691,-0.0548153,3999,0,-1.24013,1.36996,-10.7887,3999
362479061,-3.74838e-05,0.0639513,0.0506495,3999,0,3.16803,-2.10716,-8.06775,3999
362483063,0.0594663,-0.0240299,0.0481759,4002,0,2.71658,2.79694,-9.44511,4002
362487064,0.00494686,-0.163157,-0.0219956,4001,0,-2.51283,-2.01991,-10.0168,4001
362491063,-0.149493,0.178541,-0.0198195,3999,0,-4.32706,1.02394,-10.6667,3999
362495835,0.105336,0.205407,0.0200326,4772,0,2.19906,-0.526657,-9.0849,4772
362499882,0.0401399,-0.0257443,0.0189751,4047,0,3.597,1.70542,-8.74804,4047
362503834,0.012556,-0.234726,0.0464769,3952,0,-0.740892,-0.757726,-12.0381,3952
362507883,-0.068251,0.0877197,-0.0258982,4049,0,-3.50004,-0.0449899,-8.61542,4049
362511839,0.0232421,0.202889,-0.0351725,3956,0,-0.737618,1.61671,-10.4247,3956
362515840,0.0721323,0.00862734,0.0386851,4001,0,4.2888,-2.44563,-7.72928,4001
362519836,0.0425555,-0.14359,0.058406,3996,0,2.84543,1.78838,-11.4174,3996
362523885,0.0370664,-0.141117,-0.0213215,4049,0,-3.46882,-1.29629,-10.3724,4049
362527884,-0.114527,0.0751291,-0.0463415,3999,0,-2.87551,0.698167,-10.1214,3999
362531835,0.0901917,0.155226,0.0549379,3951,0,2.02079,0.137648,-8.52138,3951
362535837,0.100803,-0.104961,-0.0244057,4002,0,3.5213,-1.97987,-8.36302,4002
362540646,-0.0308035,-0.219432,0.0288224,4809,0,-0.548169,2.55358,-11.3162,4809
362544677,-0.0323342,0.00691821,-0.0317717,4031,0,-3.84699,-4.83151,-9.06939,4031
362548678,-0.0227135,0.22076,-0.0346522,4001,0,-1.05765,5.68088,-10.9138,4001
362552677,0.11816,-0.118999,0.0282465,3999,0,5.36768,-6.05444,-6.69649,3999
362556677,-0.129179,-0.228242,0.0363099,4000,0,1.07926,4.2957,-11.7935,4000
363961477,0.419468,0.216491,0.516904,4800,0,12.286,-18.074,-10.1984,4800
363965483,-0.687651,-0.632265,-0.258519,4006,0,9.362,5.65944,-10.7195,4006
363969477,-0.133701,-0.319774,-0.229941,3994,0,-23.4835,8.06201,-7.62058,3994
363973478,0.0715739,0.0819318,0.296942,4001,0,5.35004,-8.59409,-13.4753,4001
363977481,-0.539968,-0.235319,0.0845786,4003,0,16.4518,7.60474,-6.66979,4003
363981477,0.472318,-0.360858,-0.245251,3996,0,-17.46,-4.11444,-12.1256,3996
363985477,-0.834388,-0.0904371,-0.0230919,4000,0,-2.14278,-8.27254,-10.3438,4000
363989478,-0.157826,-0.0759186,0.0446242,4001,0,13.8927,18.4685,-8.34162,4001
363993478,0.598622,-0.151667,-0.14502,4000,0,-8.96284,-12.2341,-9.84259,4000
363997479,-0.99786,-0.17323,0.103912,4001,0,-2.56329,-10.7972,-10.0474,4001
364001479,-0.00293218,-0.152069,0.0423679,4000,0,5.04779,25.8601,-11.2756,4000
364005479,0.386953,0.0990203,-0.171046,4000,0,-1.76409,-13.3455,-6.01044,4000
364009477,-0.454905,-0.188535,0.118513,3998,0,0.187136,-15.3378,-12.704,3998
364013477,-0.500758,-0.243889,0.148042,4000,0,-2.00713,26.8272,-12.0315,4000
364018280,0.504948,0.18225,-0.0956942,4803,0,0.817934,-12.8726,-5.19899,4803
364022277,-0.389459,-0.262569,0.0889959,3997,0,5.88038,-8.29441,-14.6141,3997
364026281,-0.525448,-0.260851,0.10557,4004,0,-11.6528,22.1012,-10.2676,4004
364030279,0.542668,0.452448,0.127359,3998,0,1.03398,-11.516,-4.7578,3998
364034241,-0.300887,-0.149046,-0.0791709,3962,0,14.2546,-12.5429,-12.5964,3962
364038279,-0.670751,-0.469162,-0.136131,4038,0,-13.0419,20.0816,-10.5871,4038
364042277,0.641496,0.411166,0.223244,3998,0,-7.68609,-5.33667,-7.57414,3998
364046280,-0.386203,0.176935,0.0800879,4003,0,19.275,-14.8466,-10.5102,4003
364050280,-0.470894,-0.472832,-0.271603,4000,0,-5.3145,16.429,-12.2387,4000
364054276,0.204715,0.21161,0.0844852,3996,0,-16.5421,-2.82604,-7.28427,3996
364058248,-0.169891,0.397115,0.254623,3972,0,17.2437,-10.6502,-8.60606,3972
364063069,-0.17646,-0.320376,-0.240127,4821,0,-1.43589,10.7945,-12.2464,4821
364067064,-0.0112777,0.0628494,-0.0473766,3995,0,-12.8841,-12.8775,-6.45138,3995
364071062,-0.40256,0.2806,0.192516,3998,0,15.2176,3.98155,-11.2494,3998
364075062,0.0864464,-0.276972,-0.0969315,4000,0,-1.3525,8.76211,-8.77211,4000
364079061,0.0464585,0.0363725,-0.222236,3999,0,-9.70654,-17.9772,-8.18081,3999
364083081,-0.535972,0.0829264,0.214318,4020,0,8.26113,9.90821,-13.1583,4020
364087075,0.132611,-0.219706,-0.0521412,3994,0,1.31313,10.1043,-6.62384,3994
364091036,0.176997,0.0968797,-0.188528,3961,0,-7.54349,-24.8451,-10.1769,3961
364095083,-0.84748,-0.0202511,0.331091,4047,0,5.62767,9.02855,-10.6816,4047
364099081,-0.05061,-0.121601,-0.125952,3998,0,0.406866,18.0787,-7.01577,3998
364103083,0.778649,-0.00855066,-0.153077,4002,0,-4.4632,-23.3389,-9.63582,4002
364107076,-0.965368,0.0826739,0.245591,3993,0,3.95545,-3.87652,-10.1963,3993
364111870,-0.12423,-0.0332399,-0.0630525,4794,0,-3.27507,20.163,-7.16552,4794
364115863,0.7047,0.0631513,0.00608679,3993,0,1.872,-21.5131,-9.21845,3993
364119864,-0.777194,-0.0608442,0.172953,4001,0,4.3863,-6.23505,-13.1553,4001
364123862,-0.22993,-0.0268589,-0.0676313,3998,0,-11.0315,24.4632,-8.23496,3998
364127862,0.49488,0.32261,0.0482131,4000,0,4.92017,-9.67032,-6.33525,4000
364131862,-0.20228,-0.0484331,0.129214,4000,0,9.41012,-15.6568,-15.2057,4000
364135861,-0.456552,-0.178892,-0.225694,3999,0,-13.8779,19.3092,-6.20666,3999
364139863,0.343676,0.548904,0.130006,4002,0,-2.41955,0.10975,-6.35914,4002
364143862,0.191296,0.126699,0.224395,3999,0,15.7828,-14.6263,-13.1009,3999
364147868,-0.297355,-0.159633,-0.343725,4006,0,-7.03281,8.57234,-9.15206,4006
364151862,0.186558,0.346579,0.0218244,3994,0,-12.7742,3.92245,-7.79559,3994
364156645,0.190059,0.247497,0.159513,4783,0,14.7494,-5.59484,-11.9951,4783
364160684,0.0113893,-0.132187,-0.258091,4039,0,-5.80979,1.19794,-8.37457,4039
364164652,0.0871314,0.426954,0.140671,3968,0,-12.492,1.60572,-8.92575,3968
364168640,0.152792,0.280624,0.0799131,3988,0,14.1975,3.02326,-7.53385,3988
364172683,0.413554,-0.212426,-0.195837,4043,0,3.42057,-6.69335,-11.7856,4043
364176684,-0.115821,0.293609,0.139192,4001,0,-15.1369,-1.84903,-8.07865,4001
364180682,0.00488726,0.438899,-0.0250408,3998,0,4.17284,8.67798,-9.40022,3998
364184635,0.659253,-0.212978,-0.150679,3953,0,13.3363,-0.0213576,-10.5745,3953
364188682,-0.0141075,0.121228,0.132496,4047,0,-11.8458,-15.1698,-8.82449,4047
364192650,-0.346839,0.238945,0.0241165,3968,0,-4.74702,6.66887,-10.2521,3968
364196635,0.318725,0.0910211,-0.220631,3985,0,14.3363,16.9717,-7.50266,3985
364201476,0.551371,-0.111467,0.161357,4841,0,-4.73959,-23.5855,-10.2809,4841
364205480,-0.892806,0.0919786,-0.0734279,4004,0,-6.10104,4.01731,-9.00525,4004
364209478,0.313075,-0.0175846,-0.236829,3998,0,7.67604,31.6596,-7.99495,3998
364213478,1.25862,-0.0104949,0.233613,4000,0,1.87057,-24.3805,-9.05829,4000
364217481,-0.871647,-0.118281,0.0205718,4003,0,-1.37386,-25.8024,-11.4849,4003
364221480,-0.36998,-0.292784,-0.273478,3999,0,-6.13429,47.4163,-8.87248,3999
364225477,1.11042,0.244435,0.118272,3997,0,2.91212,-2.62146,-6.64411,3997
364229476,0.239179,-0.324575,0.316638,3999,0,12.5845,-49.8062,-14.3777,3999
364233483,-1.22178,-0.57318,-0.375993,4007,0,-12.9878,35.7376,-4.40474,4007
364237484,0.777843,0.284193,0.0273852,4001,0,-9.52123,25.1137,-8.50213,4001
364241483,0.962794,-0.13107,0.678288,3999,0,23.2631,-48.7705,-13.9249,3999
364245435,-1.04329,-0.718427,-0.505118,3952,0,-4.36879,4.99878,-8.46948,3952
364250279,0.207319,-0.0845198,0.184262,4844,0,-15.3244,26.044,-7.17743,4844
364254279,0.60936,-0.0104382,0.660178,4000,0,23.1176,-33.3833,-14.375,4000
364258281,-0.793616,-0.596623,-0.492534,4002,0,-3.80338,0.074513,-6.98649,4002
364262281,-0.195496,-0.307441,0.0470468,4000,0,-15.8658,20.9344,-8.16748,4000
364266280,0.44375,-0.0605973,0.446106,3999,0,12.8011,-9.82862,-12.5363,3999
364270280,-0.261025,-0.210946,-0.00745049,4000,0,1.64323,-12.5952,-9.41675,4000
364274280,-0.393225,-0.318366,0.00810504,4000,0,-10.0001,13.3985,-5.17399,4000
364278277,0.088494,-0.17893,-0.00440801,3997,0,5.67133,2.49787,-16.3018,3997
364282281,0.0380001,-0.370658,0.0264952,4004,0,3.91959,-15.8944,-5.92716,4004
364287086,-0.628904,-0.119398,0.126643,4805,0,-7.1182,7.92873,-7.56524,4805
364291088,0.218058,-0.209683,-0.187671,4002,0,4.33484,10.237,-16.7931,4002
364295082,0.293604,-0.25575,0.00487996,3994,0,4.06329,-18.0283,-4.3472,3994
364299080,-0.790854,0.00427387,0.0992958,3998,0,-7.84468,-4.49892,-11.4817,3998
364303078,-0.276431,-0.200253,-0.167417,3998,0,0.0513778,24.9677,-14.2667,3998
364307081,0.6417,-0.0701676,-0.00739317,4003,0,5.89333,-7.46569,-2.75431,4003
364311076,-0.12651,0.134463,0.137865,3995,0,-3.72868,-25.1941,-14.0166,3995
364315039,-0.825159,-0.178087,-0.202348,3963,0,-5.04809,26.7061,-8.63871,3963
364319082,0.805486,0.160689,-0.0875962,4043,0,2.31327,13.786,-8.52153,4043
364323080,0.71208,0.243767,0.311209,3998,0,4.22581,-42.0637,-11.1908,3998
364327078,-1.22635,-0.100815,-0.35343,3998,0,-1.41871,10.6864,-6.36385,3998
364331081,0.570802,0.0325315,-0.358252,4003,0,-9.41114,41.2093,-12.6735,4003
364335076,1.25946,0.491287,0.611373,3995,0,7.06546,-38.4495,-8.40876,3995
364339883,-0.854142,-0.178762,-0.3178,4807,0,5.71502,-6.11388,-9.23219,4807
364343881,0.448206,0.0289051,-0.409996,3998,0,-19.4865,46.9831,-9.97046,3998
364347884,1.35554,0.714654,0.747183,4003,0,9.25828,-38.8129,-10.1097,4003
364351876,-0.423898,-0.161889,-0.245079,3992,0,17.639,-16.6869,-8.50063,3992
364355878,-0.281544,-0.321181,-0.453544,4002,0,-22.4519,45.2587,-9.94986,4002
364359879,1.39322,0.612671,0.481776,4001,0,-4.82855,-19.2136,-9.62532,4001
364363881,-0.0792668,0.142476,0.106557,4002,0,26.656,-26.7023,-10.882,4002
364367882,-0.536572,-0.577062,-0.417174,4001,0,-13.915,33.572,-6.5996,4001
364371884,1.0912,0.274042,0.222283,4002,0,-15.4073,-2.70332,-12.755,4002
364375880,0.0910161,0.261233,0.388612,3996,0,24.7877,-22.0035,-9.05566,3996
364379881,-0.180035,-0.531269,-0.29721,4001,0,-3.42234,14.1244,-8.11877,4001
364384676,0.286514,-0.164899,0.0685334,4795,0,-10.052,-4.46662,-11.3641,4795
364388646,-0.155105,-0.0269294,0.0931279,3970,0,13.8804,1.92087,-9.97944,3970
364392677,0.383507,-0.152873,-0.136938,4031,0,-4.90708,0.284693,-7.71969,4031
364396675,-0.235033,-0.347357,-0.021969,3998,0,-2.08056,-8.25656,-10.1564,3998
364400677,-0.109029,-0.267714,-0.138775,4002,0,3.89374,11.2819,-11.4208,4002
364404676,0.332462,-0.212451,0.0719412,3999,0,-0.736614,-7.577,-7.77973,3999
364408677,-0.625145,-0.253965,-0.0242189,4001,0,-1.48195,-8.46442,-10.2265,4001
364412675,-0.140883,-0.276089,-0.173953,3998,0,-1.41333,17.897,-12.7101,3998
364416646,0.147823,-0.0719515,0.19135,3971,0,2.17711,-6.70458,-6.15978,3971
364421459,-0.44602,-0.316491,-0.122184,4813,0,0.697203,-9.52766,-12.0929,4813
364425461,-0.277149,-0.257155,-0.167036,4002,0,-6.40258,22.1956,-10.7138,4002
364429462,0.22559,0.105864,0.229016,4001,0,2.63243,-12.061,-6.58817,4001
364433461,-0.207533,-0.25739,-0.23244,3999,0,7.01685,-9.21233,-12.5094,3999
364437461,-0.58858,-0.246809,-0.143802,4000,0,-11.471,19.2991,-9.6919,4000
364441461,0.55845,0.374587,0.251969,4000,0,-3.06212,-10.0394,-7.44096,4000
364445461,-0.290782,-0.014626,-0.172053,4000,0,15.9665,-8.64844,-10.5302,4000
364449461,-0.551996,-0.335198,-0.208308,4000,0,-8.95692,16.54,-9.46445,4000
364453460,0.547267,0.235682,0.169263,3999,0,-12.609,-10.339,-10.4996,3999
364457460,-0.595357,0.385255,-0.0496113,4000,0,17.8605,-5.52302,-8.25832,4000
364461461,-0.113955,-0.324573,-0.175485,4001,0,-0.577988,16.1026,-9.57632,4001
364465460,0.272739,0.130618,0.0334015,3999,0,-17.9139,-12.8194,-10.688,3999
364469462,-0.439128,0.435457,0.0639776,4002,0,14.1027,-3.51026,-8.84974,4002
364473461,-0.0344239,-0.222664,-0.160831,3999,0,6.25474,15.9322,-8.42124,3999
364477462,0.186003,0.156754,-0.0517408,4001,0,-19.3513,-14.714,-10.2217,4001
364482282,-0.378896,0.342936,0.0990586,4820,0,11.228,2.53886,-8.98542,4820
364486237,0.164423,-0.15316,-0.143335,3955,0,3.76051,12.983,-7.81343,3955
364490235,0.209002,0.245339,-0.0206053,3998,0,-17.5681,-23.9274,-11.104,3998
364494237,-0.714027,0.282787,0.112746,4002,0,10.0895,7.38054,-10.3497,4002
364498283,0.166926,-0.0254142,-0.107981,4046,0,8.24213,19.4026,-6.52443,4046
364502284,0.579735,0.184335,-0.0742464,4001,0,-16.2108,-28.2441,-11.7805,4001
364506236,-0.990069,0.223367,0.13934,3952,0,5.01387,0.357317,-10.2094,3952
364510282,-0.00850078,0.0755118,-0.0909363,4046,0,9.11611,29.3279,-7.03523,4046
364514282,0.958699,0.172274,-0.106234,4000,0,-10.4199,-25.0141,-9.61832,4000
364518236,-0.874747,0.152177,0.167428,3954,0,0.801835,-12.3755,-11.2581,3954
364522282,-0.256388,0.0895972,0.0702549,4046,0,6.45447,33.844,-8.9824,4046
364527079,0.965444,0.191948,-0.166163,4797,0,-5.44395,-21.4864,-8.14597,4797
364531080,-0.997824,0.0963893,0.254008,4001,0,4.48526,-8.33697,-12.6324,4001
364535079,-0.106618,0.00708528,0.0501756,3999,0,-2.87849,35.0099,-8.29032,3999
364539043,0.980039,0.296054,-0.207128,3964,0,-1.43866,-18.2775,-6.72136,3964
364543035,-0.437016,0.0387734,0.222403,3992,0,9.32995,-22.8253,-14.307,3992
364547036,-0.501853,-0.173152,0.156655,4001,0,-11.0899,33.3396,-11.2758,4001
364551085,0.572289,0.520526,-0.226686,4049,0,-2.72394,-1.71634,-2.19208,4049
364555037,0.449885,0.104936,0.255082,3952,0,17.558,-27.7857,-16.7234,3952
364559035,-0.732357,-0.35979,0.0381506,3998,0,-10.8006,19.8469,-9.29234,3998
364563089,0.478883,0.491966,-0.0927248,4054,0,-12.6494,9.15961,-3.33008,4054
364567046,0.558631,0.389512,0.255167,3957,0,21.9877,-22.8997,-15.7994,3957
364571880,-0.399831,-0.322603,-0.181676,4834,0,-6.27194,9.65746,-10.0853,4834
364575876,0.493878,0.398885,-0.0177945,3996,0,-16.2468,4.87264,-3.65989,3996
364579876,0.288627,0.494032,0.344581,4000,0,22.4605,-11.751,-15.3526,4000
364583881,-0.0212952,-0.238916,-0.32034,4005,0,1.29504,1.77399,-11.0549,4005
364587877,0.147595,0.127086,-0.139408,3996,0,-22.0112,3.19389,-4.3753,3996
364591879,-0.0405773,0.406449,0.285821,4002,0,16.1837,1.62264,-12.0282,4002
364595879,0.58511,-0.151676,-0.278357,4000,0,6.07652,-5.79638,-12.1615,4000
364599879,-0.0658447,0.200837,-0.0238696,4000,0,-17.6193,-1.31053,-4.4133,4000
364603880,-0.0291954,0.235616,0.195721,4001,0,8.74668,11.2701,-11.1341,4001
364608678,0.746942,-0.198558,-0.171487,4798,0,3.91077,-11.6178,-10.0285,4798
364612647,-0.534187,0.336229,0.153058,3969,0,-9.80118,-7.47491,-7.22264,3969
364616676,-0.206778,0.0828267,0.0950303,4029,0,3.66377,25.7357,-11.665,4029
364620676,1.19408,-0.271774,-0.246268,4000,0,6.06646,-6.01745,-8.23085,4000
364624677,-0.182733,0.268918,-0.010106,4001,0,-4.19112,-30.3645,-9.76272,4001
364628677,-0.733006,-0.046388,0.223736,4000,0,-3.9276,27.8092,-11.38,4000
364632674,0.791674,-0.129964,-0.292989,3997,0,3.76208,15.6861,-5.84541,3997
364636676,0.844874,0.214426,0.0603209,4002,0,4.82735,-43.8865,-11.5649,4002
364640644,-1.26866,-0.154353,0.133132,3968,0,-4.80341,9.20268,-9.02582,3968
364644676,0.467183,-0.0949671,-0.237173,4032,0,-6.54447,41.4932,-9.23462,4032
364648678,1.39034,0.330098,0.25613,4002,0,11.2779,-40.1718,-10.0452,4002
364652676,-1.0813,-0.27551,-0.0306133,3998,0,4.05018,-22.2054,-10.5902,3998
364656677,-0.422338,-0.225186,-0.204049,4001,0,-17.5686,56.5663,-8.55064,4001
364661478,1.38676,0.369123,0.414017,4801,0,9.89351,-24.9831,-9.85073,4801
364665479,-0.745753,-0.295419,-0.165323,4001,0,10.7695,-28.4025,-12.7603,4001
364669478,-0.544579,-0.409014,-0.303524,3999,0,-23.9562,52.7251,-5.83171,3999
364673477,1.16898,0.456749,0.547485,3999,0,3.64849,-7.52951,-8.84118,3999
364677477,0.183409,-0.0296431,0.0945983,4000,0,22.3344,-41.5138,-15.1041,4000
364681476,-0.78635,-0.643539,-0.571484,3999,0,-18.9747,32.869,-3.12218,3999
364685478,0.861183,0.27504,0.392097,4002,0,-10.3799,14.8575,-10.96,4002
364689480,0.497272,0.171551,0.474711,4002,0,25.9054,-36.8197,-14.0762,4002
364693478,-0.387849,-0.744964,-0.703836,3998,0,-5.81542,11.1439,-4.86318,3998
364697480,0.283658,0.0218332,0.04994,4002,0,-19.8078,17.9196,-13.4343,4002
364701475,0.504488,0.21879,0.58924,3995,0,18.4842,-18.4716,-8.02815,3995
364705479,0.251368,-0.533544,-0.457658,4004,0,5.72557,-0.719053,-10.5484,4004
364710277,-0.0287472,-0.330915,-0.058258,4798,0,-13.6551,3.99314,-10.8825,4798
364714281,0.101531,0.00107181,0.130598,4004,0,12.5334,-2.4044,-8.62932,4004
364718280,0.33851,-0.358364,-0.133694,3999,0,-0.59613,-2.25574,-9.69246,3999
364722276,-0.372814,-0.320512,0.0489337,3996,0,-6.18824,-2.55509,-10.4783,3996
364726279,0.276923,-0.195586,-0.0509708,4003,0,3.75634,8.49526,-12.6218,4003
364730281,0.0830602,-0.316464,0.011255,4002,0,2.9349,-7.82804,-5.5688,4002
364734274,-0.300966,-0.385459,0.0508299,3993,0,-3.06862,-8.28267,-12.4604,3993
364738275,-0.127696,-0.330059,-0.163925,4001,0,-4.19695,17.371,-13.2488,4001
364742280,0.114749,0.053651,0.103096,4005,0,4.58311,-4.68713,-2.51161,4005
364746278,0.353911,-0.420157,0.0345951,3998,0,2.58446,-14.9292,-14.9131,3998
364750279,-0.729875,-0.450918,-0.252229,4001,0,-6.89319,14.0043,-8.82381,4001
364755061,0.251993,0.171513,0.187067,4782,0,1.41521,-0.913917,-6.52675,4782
364759062,0.237536,-0.298577,-0.0696082,4001,0,5.79804,-13.0251,-13.7593,4001
364763071,-0.564873,-0.415054,-0.325471,4009,0,-7.49592,14.151,-7.4526,4009
364767062,0.516835,0.320148,0.282356,3991,0,-5.43455,-0.460336,-10.2718,3991
364771063,0.101504,-0.147548,-0.00299045,4001,0,13.996,-11.9986,-10.5549,4001
364775064,-0.427075,-0.354839,-0.380855,4001,0,-5.79033,9.0734,-9.48683,4001
364779061,0.489823,0.292202,0.181458,3997,0,-12.9851,0.797344,-11.9404,3997
364783061,-0.189616,0.183387,0.0298094,4000,0,14.9881,-10.3004,-6.37008,4000
364787060,0.0356175,-0.283416,-0.31254,3999,0,2.70068,9.66153,-11.6076,3999
364791079,0.135178,0.101244,0.118741,4019,0,-17.7483,-3.57419,-9.52842,4019
364795063,-0.175986,0.390921,0.00807312,3984,0,8.95755,-7.86476,-8.75774,3984
364799062,0.0579164,-0.101754,-0.102291,3999,0,10.4422,12.6699,-11.014,3999
364803882,0.203144,0.0700816,-0.00811036,4820,0,-14.859,-9.75656,-9.44812,4820
364807836,-0.355736,0.352665,0.0222367,3954,0,8.01706,-0.526377,-11.3398,3954
364811835,0.168887,-0.121418,-0.10259,3999,0,9.58559,14.1683,-8.19295,3999
364815834,0.210661,0.154116,-0.071307,3999,0,-15.5351,-16.0823,-9.84109,3999
364819836,-0.413261,0.303174,0.148136,4002,0,0.769739,-2.76981,-12.527,4002
364823840,0.00230009,0.0605306,-0.0751548,4004,0,14.9215,20.0791,-6.57499,4004
364827835,0.611572,0.0440622,-0.0894962,3995,0,-12.2446,-14.2716,-9.63995,3995
364831887,-0.5482,0.264503,0.0656165,4052,0,-5.27509,-13.5134,-11.6913,4052
364835834,-0.202233,0.2527,0.0204702,3947,0,14.6568,27.3526,-8.02489,3947
364839865,0.787808,0.0217965,-0.156922,4031,0,-4.99528,-5.2719,-7.83578,4031
364843862,-0.280189,0.213843,0.0448642,3997,0,-7.64044,-28.0355,-11.2622,3997
364848683,-0.356279,0.163715,0.0300657,4821,0,7.51292,29.1293,-10.2936,4821
364852683,0.90417,0.16957,-0.171279,4000,0,-4.48855,-7.39842,-6.17898,4000
364856638,-0.0524079,0.134073,0.121276,3955,0,1.07494,-30.5141,-11.6018,3955
364860682,-0.725086,0.0283161,0.199442,4044,0,0.808859,29.0171,-13.2178,4044
364864652,0.519965,0.318111,-0.252317,3970,0,-5.16376,9.06148,-0.974094,3970
364868685,0.737614,0.1401,0.122945,4033,0,9.27218,-35.4528,-15.3847,4033
364872682,-1.08512,-0.11811,0.192166,3997,0,-1.94067,15.2919,-9.78278,3997
364876682,0.32031,0.347812,-0.0864209,4000,0,-13.467,18.1295,-3.6848,4000
364880682,0.692272,0.434604,0.157392,4000,0,16.6,-25.962,-13.1757,4000
364884638,-0.616562,-0.354976,-0.041765,3956,0,5.30464,1.35947,-9.97063,3956
364888682,0.0610349,0.163793,-0.0827751,4044,0,-26.0437,18.5973,-7.7466,4044
364892652,0.350241,0.661194,0.316596,3970,0,13.9012,-14.2888,-8.99964,3970
364897476,-0.187412,-0.208379,-0.114243,4824,0,10.9506,-1.32866,-11.3612,4824
364901478,0.0702087,0.109951,-0.166647,4002,0,-28.9721,8.71482,-7.33585,4002
364905479,0.183167,0.590963,0.247733,4001,0,12.4111,-6.30734,-8.63121,4001
364909477,0.240158,0.132239,0.0397415,3998,0,17.1444,0.427238,-12.7911,3998
364913477,-0.0151318,0.0363993,-0.195499,4000,0,-22.462,-1.89114,-6.86177,4000
364917478,0.0105374,0.324614,0.176185,4001,0,0.642196,1.06907,-8.0458,4001
364921477,0.391281,0.27116,-0.0958912,3999,0,18.5219,5.11026,-13.4844,3999
364925477,0.228542,0.0729463,-0.163725,4000,0,-15.005,-13.1335,-7.50607,4000
364929476,-0.322236,0.29936,0.229074,3999,0,-4.29933,4.32174,-10.6304,3999
364934238,0.626641,0.024175,-0.143699,4762,0,13.1746,11.4514,-12.2879,4762
364938280,0.0670586,0.285247,-0.169434,4042,0,-11.9565,-30.8321,-5.42886,4042
364942277,-0.658963,0.204775,0.29694,3997,0,-0.732908,12.2434,-13.121,3997
364946274,0.379714,-0.0775779,-0.301846,3997,0,8.27124,27.3615,-9.02068,3997
364950282,1.09149,0.212516,-0.193205,4008,0,-3.40481,-36.8389,-7.28254,4008
364954278,-1.08479,0.176144,0.176037,3996,0,-0.71172,-7.75871,-10.5396,3996
364958276,-0.0352529,-0.0689421,-0.146664,3998,0,-1.97603,45.3108,-12.4634,3998
364962281,1.27324,0.150882,-0.193544,4005,0,3.79939,-23.9942,-5.25248,4005
364966279,-0.593248,0.0156512,0.1399,3998,0,6.56232,-34.5958,-11.7146,3998
364970279,-0.628342,-0.264352,-0.112114,4000,0,-14.3147,51.6387,-13.0588,4000
364974281,1.11078,0.360685,-0.155767,4002,0,0.676231,1.87653,-2.29333,4002
364978277,0.499626,0.0395938,0.403436,3996,0,20.4251,-53.9421,-15.7459,3996
364982276,-1.20456,-0.614737,-0.247741,3999,0,-16.1141,34.4057,-7.47096,3999
364987086,0.996522,0.348594,0.0810125,4810,0,-6.75073,13.814,-7.23654,4810
364991078,0.290973,0.0874314,0.416782,3992,0,26.3326,-49.2246,-14.7583,3992
364995081,-1.00933,-0.647975,-0.521966,4003,0,-15.674,27.8856,-7.12732,4003
364999077,0.709703,0.12867,0.202441,3996,0,-16.5463,22.3204,-8.10006,3996
365003077,0.535129,0.353715,0.74019,4000,0,26.1007,-35.5664,-12.2303,4000
365007078,-0.413286,-0.547767,-0.714659,4001,0,-1.97758,2.64923,-12.4037,4001
365011081,-0.186914,-0.0801959,0.0120253,4003,0,-22.0906,19.881,-5.98886,4003
365015039,0.519837,0.308293,0.826544,3958,0,17.8245,-11.7466,-10.9805,3958
365019078,0.105507,-0.288255,-0.321389,4039,0,4.75218,-6.88179,-12.6917,4039
365023082,-0.287435,-0.104343,-0.262053,4004,0,-17.0657,10.2556,-6.42563,4004
365027081,0.450599,0.0787026,0.475515,3999,0,9.05737,-2.79094,-11.2537,3999
365031879,0.120139,-0.214557,-0.213246,4798,0,2.18555,-4.16692,-10.093,4798
365035881,-0.280921,0.182109,0.0841125,4002,0,-10.8396,3.69524,-8.99279,4002
365039881,0.420394,-0.0184432,0.094918,4000,0,9.83173,2.42651,-11.482,4000
365043883,0.228145,-0.397251,-0.125948,4002,0,1.91359,-5.42508,-8.75585,4002
365047883,-0.301189,0.250781,0.147286,4000,0,-10.8584,-4.18238,-9.45819,4000
365051879,0.138747,0.0579946,0.107222,3996,0,5.28062,9.56397,-13.7041,3996
365055883,0.193494,-0.346909,-0.119222,4004,0,5.99078,-2.34605,-5.95904,4004
365059880,0.0625706,0.184132,0.0704894,3997,0,-9.22354,-12.5233,-10.4577,3997
365063876,-0.443317,0.0249705,0.079069,3996,0,1.33214,10.7575,-14.2765,3996
365067881,0.22966,-0.222817,-0.0953641,4005,0,5.9129,5.24372,-5.28948,4005
365071879,0.470275,0.130135,0.039214,3998,0,-4.75594,-17.6774,-11.6002,3998
365075876,-0.860478,-0.00080054,0.0232177,3997,0,-1.85056,5.12955,-13.077,3997
365080662,0.246162,0.000456526,-0.0214605,4786,0,2.5344,9.80122,-5.36118,4786
365084664,0.549938,0.0907278,0.0832164,4002,0,-0.214103,-21.9457,-13.9978,4002
365088680,-0.952196,-0.0754524,-0.100172,4016,0,-1.25738,6.83783,-10.8826,4016
365092660,0.233821,0.114704,0.0472508,3980,0,-2.22674,15.9067,-5.46552,3980
365096660,0.643043,0.0725614,0.160458,4000,0,4.46081,-20.2423,-13.8919,4000
365100660,-0.793845,-0.0757928,-0.218238,4000,0,0.953604,-1.59326,-9.0626,4000
365104662,0.0686572,-0.0299783,0.048763,4002,0,-8.05868,18.8849,-9.96886,4002
365108660,0.211772,0.198937,0.257236,3998,0,5.3852,-15.3053,-9.86647,3998
365112661,-0.273733,-0.141773,-0.264291,4001,0,6.38916,-5.14086,-11.0411,4001
365116681,-0.237584,-0.171217,-0.0235872,4020,0,-13.0459,17.1042,-10.2577,4020
365121483,0.174096,0.209619,0.221992,4802,0,7.05856,-12.0141,-9.79088,4802
365125483,-0.310019,-0.226843,-0.302997,4000,0,4.23036,1.70906,-10.8505,4000
365129434,-0.0598071,0.00151798,0.0854911,3951,0,-14.3572,8.23376,-9.09583,3951
365133481,-0.0508241,0.172701,0.142866,4047,0,8.09799,-10.1387,-9.1508,4047
365137483,-0.0280349,-0.240766,-0.286699,4002,0,5.77676,5.9749,-11.2153,4002
365141435,-0.1182,0.0749294,0.1341,3952,0,-12.4452,-1.90648,-9.34117,3952
365145460,-0.242112,0.118727,0.0926915,4025,0,4.96135,-6.41912,-10.6561,4025
365149462,-0.0754974,-0.279264,-0.258285,4002,0,7.51844,12.9229,-9.4678,4002
365153462,0.0980617,0.0256977,0.130731,4000,0,-11.1409,-11.2273,-10.6184,4000
365157460,-0.466382,0.108366,0.0531887,3998,0,0.320634,-4.21278,-11.2117,3998
365161461,-0.132601,-0.160018,-0.158188,4001,0,10.1252,19.3897,-7.43636,4001
365165460,0.502011,0.00767723,0.017707,3999,0,-7.91341,-14.2308,-11.2565,3999
365169461,-0.606841,0.0793735,0.0487925,4001,0,-3.7979,-12.6045,-9.60874,4001
365174236,-0.215265,-0.112598,-0.126203,4775,0,8.11059,24.1449,-8.06984,4775
365178284,0.766326,0.0507256,0.0591623,4048,0,-7.4921,-20.0247,-12.6314,4048
365182255,-0.731578,-0.00313203,-0.00116604,3971,0,-0.189569,-15.0536,-9.26793,3971
365186283,-0.460236,-0.0633655,-0.090446,4028,0,4.2328,33.9438,-9.35174,4028
365190235,1.01782,0.0394795,0.0645262,3952,0,-3.74419,-9.46406,-10.1684,3952
365194284,-0.405951,-0.0114311,-0.0100523,4049,0,3.35775,-31.5947,-10.3502,4049
365198236,-0.913856,-0.179404,-0.0519949,3952,0,-3.29623,34.9214,-12.6837,3952
365202284,0.77138,0.133129,-0.0195687,4048,0,-2.89294,6.63521,-5.42357,4048
365206280,0.259711,-0.0848993,0.0605792,3996,0,12.591,-40.8781,-13.8469,3996
365210285,-1.21813,-0.364859,-0.0337514,4005,0,-10.8331,26.7556,-10.6122,4005
365214284,0.59112,0.275119,0.00476179,3999,0,-8.16934,17.5701,-5.56814,3999
365219080,0.428624,-0.121264,0.13354,4796,0,19.3617,-30.3408,-13.7527,4796
365223082,-1.07246,-0.432886,-0.166021,4002,0,-20.2911,23.3173,-8.65439,4002
365227080,0.711897,0.295831,0.140667,3998,0,-8.15302,10.4172,-6.6369,3998
365231082,0.444211,0.0311959,0.287093,4002,0,28.5868,-28.3138,-16.0407,4002
365235078,-0.876624,-0.48598,-0.374841,3996,0,-13.6512,8.28109,-5.81705,3996
365239039,0.456063,-0.0380946,0.00575015,3961,0,-15.4947,15.32,-9.9869,3961
365243081,0.271008,0.0893559,0.371955,4042,0,22.7133,-14.9131,-13.6107,4042
365247080,-0.227152,-0.195907,-0.278295,3999,0,-6.88537,-5.90226,-9.19807,3999
365251083,-0.230931,-0.100691,0.0400279,4003,0,-8.96641,10.9839,-8.84508,4003
365255876,0.213525,-0.402743,0.00286868,4793,0,11.8572,-2.0335,-12.309,4793
365259877,-0.238893,0.177285,-0.168109,4001,0,-12.6859,-15.9339,-10.408,4001
365263884,-0.688679,-0.196993,0.216746,4007,0,1.58579,12.2154,-8.9532,4007
365267882,0.123051,-0.543698,-0.247301,3998,0,9.40874,13.3812,-12.0962,3998
365271877,0.460224,0.0525824,-0.0497384,3995,0,-7.75071,-30.7659,-10.5117,3995
365275836,-1.38243,-0.183642,0.0708548,3959,0,-0.746663,0.864721,-7.20022,3959
365279879,-0.20403,-0.454566,-0.291371,4043,0,1.7539,37.1118,-14.3992,4043
365283881,1.01343,0.0480725,0.163471,4002,0,0.473926,-31.8874,-7.16957,4002
365287879,-1.41446,-0.183727,-0.0313614,3998,0,3.43092,-21.9234,-9.85143,3998
365291884,-0.593529,-0.446901,-0.367691,4005,0,-11.9794,54.6996,-13.8242,4005
365295882,1.12721,0.247087,0.290132,3998,0,5.37515,-22.4331,-6.48202,3998
365299880,-1.11182,-0.185383,0.106667,3998,0,13.3827,-41.8121,-12.8215,3998
365303877,-1.03486,-0.58201,-0.454472,3997,0,-21.3048,57.6588,-10.228,3997
365308676,1.09562,0.380868,0.434065,4799,0,6.34548,-17.7273,-8.57136,4799
365312646,-1.01648,-0.285005,0.0116999,3970,0,17.0487,-33.2094,-14.9092,3970
365316680,-0.856941,-0.460263,-0.534073,4034,0,-27.4161,51.0228,-9.11972,4034
365320678,0.896783,0.333781,0.449094,3998,0,3.76918,-9.35039,-6.1387,3998
365324678,-0.312748,-0.0368163,0.224841,4000,0,25.0322,-36.3487,-17.7774,4000
365328677,-0.82306,-0.569476,-0.572283,3999,0,-25.791,34.4066,-6.62809,3999
365332678,0.623845,0.258806,0.276811,4001,0,-2.91897,2.21571,-8.67874,4001
365336677,-0.0327072,-0.0275411,0.340106,3999,0,25.3618,-25.2273,-16.5408,3999
365340646,-0.423257,-0.382626,-0.623268,3969,0,-18.7638,15.5269,-5.39024,3969
365344681,0.18605,-0.0771414,0.246663,4035,0,-5.00149,3.41303,-12.7998,4035
365348675,0.00452506,-0.0265531,0.228258,3994,0,16.8482,-6.33605,-12.4816,3994
365353477,0.00927214,0.0191471,-0.396051,4802,0,-10.7739,-3.16193,-6.42923,4802
365357474,-0.123025,-0.316268,0.341758,3997,0,7.0233,7.14635,-16.2329,3997
365361479,0.114524,-0.210483,-0.298797,4005,0,-0.981549,1.96852,-8.97642,4005
365365481,0.306527,0.174918,-0.196276,4002,0,-1.57678,-18.6909,-8.85511,4002
365369478,-0.814549,-0.377712,0.151662,3997,0,3.32597,12.5691,-14.2548,3997
365373477,0.25688,-0.142108,-0.268826,3999,0,-4.9034,11.0609,-6.82436,3999
365377478,0.815049,0.14205,-0.0617425,4001,0,2.62232,-21.6433,-11.5674,4001
365381476,-0.953838,-0.342647,0.172367,3998,0,4.55407,2.16299,-11.7013,3998
365385480,0.163511,-0.102601,-0.167657,4004,0,-11.6094,16.4144,-9.39856,4004
365389478,0.515767,0.143874,0.0409934,3998,0,7.12614,-14.2338,-8.71216,3998
365393479,-0.423527,-0.306968,0.109132,4001,0,6.81807,-3.27774,-14.3482,4001
365397476,0.0585863,-0.107438,-0.232782,3997,0,-18.2804,14.1268,-8.72168,3997
365401477,0.325214,0.257915,0.217637,4001,0,9.2767,-10.4167,-8.87754,4001
365406261,-0.296906,-0.22232,-0.0670615,4784,0,5.27277,-2.38735,-14.1631,4784
365410261,-0.0107046,0.0554721,-0.211568,4000,0,-18.2839,8.59618,-7.41551,4000
365414262,0.129883,0.151766,0.35507,4001,0,13.2837,-6.8661,-9.28918,4001
365418263,-0.05238,0.0205167,-0.206945,4001,0,2.87131,-1.20653,-15.86,4001
365422262,-0.102289,0.0754576,-0.0462869,3999,0,-14.1231,0.475821,-6.91181,3999
365426262,-0.181051,0.136703,0.241818,4000,0,10.6796,2.38396,-8.83428,4000
365430259,0.19072,-0.0831111,-0.279723,3997,0,2.23332,-3.12143,-15.839,3997
365434259,-0.166409,0.212602,0.113292,4000,0,-11.7546,-4.07335,-6.41393,4000
365438263,-0.314349,0.274579,0.156488,4004,0,6.98992,8.37498,-9.76839,4004
365442262,0.488154,-0.205628,-0.235799,3999,0,5.64262,-1.53091,-14.6867,3999
365446279,-0.329718,0.157825,0.08923,4017,0,-10.0824,-12.6772,-6.57977,4017
365451060,-0.473631,0.26604,0.0849085,4781,0,3.47711,11.7278,-9.82804,4781
365455062,0.606335,-0.238976,-0.228985,4002,0,5.36033,1.41331,-12.1105,4002
365459061,-0.151133,0.23973,0.159516,3999,0,-8.28818,-21.5416,-9.57922,3999
365463072,-0.835115,0.144464,-0.0413331,4011,0,0.951554,13.0219,-10.9986,4011
365467061,0.409564,-0.213013,-0.206792,3989,0,6.4235,16.7216,-8.57183,3989
365471062,0.498127,0.240745,0.228111,4001,0,-6.39258,-30.7355,-12.3812,4001
365475064,-1.14946,0.181753,-0.0720677,4002,0,-0.626681,1.79399,-9.87526,4002
365479059,0.124792,-0.188313,-0.257976,3995,0,4.44804,34.3998,-7.95134,3995
365483064,1.05272,0.287797,0.273914,4005,0,-3.57577,-29.412,-12.4274,4005
365487072,-1.07184,0.157442,-0.0278082,4008,0,0.478201,-18.6129,-9.93297,4008
365491069,-0.366512,-0.127176,-0.216914,3997,0,0.692765,45.5509,-7.64013,3997
365495884,1.23476,0.229899,0.278234,4815,0,-0.721884,-24.8731,-12.5673,4815
365499881,-1.25681,0.0632247,-0.0417439,3997,0,2.14022,-17.4712,-9.52497,3997
365503883,-0.204595,-0.117551,-0.277847,4002,0,-3.33994,50.4656,-5.87403,4002
365507841,1.59203,0.180805,0.370889,3958,0,1.4209,-21.6272,-13.914,3958
365511835,-0.89179,0.101676,0.0392909,3994,0,5.25032,-37.7565,-9.51674,3994
365515836,-0.496444,-0.237644,-0.347269,4001,0,-9.50164,51.7821,-9.38998,4001
365519841,1.11743,0.208345,0.307659,4005,0,2.03192,-1.81509,-9.28261,4005
365523835,0.209496,0.000980029,0.2356,3994,0,12.9521,-47.9531,-12.511,3994
365527835,-0.891759,-0.416945,-0.410272,4000,0,-16.1203,40.4187,-9.37267,4000
365531835,0.850373,0.194579,0.25562,4000,0,-1.49489,13.7234,-8.31498,4000
365535882,0.751696,-0.000309641,0.333639,4047,0,20.4909,-46.0904,-13.8663,4047
365540678,-0.744419,-0.367266,-0.32386,4796,0,-18.2009,26.8946,-8.20689,4796
365544678,0.961337,0.0492352,0.380458,4000,0,3.47826,4.54941,-8.3997,4000
365548677,0.550868,-0.126024,0.227991,3999,0,17.9205,-27.1212,-16.657,3999
365552677,-0.490177,-0.311469,-0.272294,4000,0,-16.1944,8.92522,-5.13101,4000
365556676,0.366694,-0.300497,0.135927,3999,0,2.10534,7.84657,-11.2246,3999
365560676,0.211668,-0.344581,0.0662999,4000,0,9.66821,-7.09329,-13.7477,4000
365564645,0.0352324,0.0178558,-0.0459226,3969,0,-14.2355,-8.79607,-7.59146,3969
365568679,-0.256485,-0.2083,0.160853,4034,0,8.44709,10.2103,-13.972,4034
365572676,0.129878,-0.601674,-0.177681,3997,0,4.45193,4.06074,-8.11417,3997
365577479,-0.0226529,-0.10923,0.0314346,4803,0,-7.05139,-19.2605,-11.952,4803
365581476,-0.594354,-0.473831,-0.0385436,3997,0,4.57421,20.1067,-13.6193,3997
365585479,0.146986,-0.218582,-0.176683,4003,0,-0.0510691,7.03221,-3.11215,4003
365589481,0.674725,-0.0801291,0.272616,4002,0,-1.42035,-27.0916,-15.3434,4002
365593478,-1.20772,-0.579069,-0.126727,3997,0,0.775235,11.6872,-14.3164,3997
365597476,0.124367,0.0236711,-0.0441585,3998,0,-4.03661,14.4746,-2.35146,3998
365601476,0.65288,-0.0594163,0.258413,4000,0,4.82726,-25.876,-15.7476,4000
365605477,-1.20062,-0.458142,-0.2226,4001,0,-0.74378,9.51637,-12.6488,4001
365609480,0.360109,0.127997,0.0686707,4003,0,-8.28742,15.7516,-5.21916,4003
365613479,0.351398,0.0205878,0.157273,3999,0,9.50797,-27.3364,-14.1241,3999
365617479,-1.05249,-0.334564,-0.200406,4000,0,-0.151539,8.47302,-12.294,4000
365621475,0.294311,0.157296,0.108196,3996,0,-12.939,14.7568,-6.84895,3996
365626278,0.134467,0.146654,0.120627,4803,0,12.0657,-15.8772,-11.0173,4803
365630279,-0.648276,-0.217813,-0.191596,4001,0,-6.60588,12.6855,-12.2539,4001
365634280,0.39832,0.30435,0.206401,4001,0,-9.66964,-2.39866,-7.33231,4001
365638279,-0.255611,0.216529,0.129178,3999,0,16.0132,-8.34118,-10.3298,3999
365642276,-0.281862,-0.146589,-0.272979,3997,0,-6.38364,11.9183,-11.7167,3997
365646274,0.427968,0.403857,0.167141,3998,0,-11.6189,-5.41484,-9.3893,3998
365650275,-0.257023,0.265602,0.131621,4001,0,17.1268,-5.1278,-9.52588,4001
365654276,-0.0465504,-0.166894,-0.251681,4001,0,-4.36871,9.81886,-11.8156,4001
365658279,0.222798,0.489924,0.0940726,4003,0,-13.1195,-10.3818,-9.88161,4003
365662281,-0.341164,0.156304,0.070664,4002,0,16.6151,2.16163,-8.66579,4002
365666282,0.210977,-0.0500911,-0.1745,4001,0,-2.65556,9.70997,-12.1873,4001
365670282,0.122839,0.396343,0.0524291,4000,0,-12.0546,-17.7415,-9.39992,4000
365674281,-0.486392,0.156849,0.0546745,3999,0,13.1984,8.09076,-10.4661,3999
365679080,0.383753,0.0589712,-0.115172,4799,0,-4.22748,3.92079,-9.25285,4799
365683076,-0.198782,0.255056,0.034744,3996,0,-2.85789,-19.9557,-10.8945,3996
365687040,-0.61366,0.109672,0.117643,3964,0,7.99216,21.0918,-11.7198,3964
365691082,0.66167,0.0775367,-0.198468,4042,0,-5.24235,0.386596,-7.52056,4042
365695075,-0.207595,0.221647,0.0779658,3993,0,1.47837,-24.184,-11.2398,3993
365699082,-0.743087,-0.0216848,0.216869,4007,0,2.58276,21.3545,-13.1961,4007
365703077,0.504651,0.129628,-0.230392,3995,0,-6.0929,4.90258,-4.96305,3995
365707079,0.0511884,0.26457,0.118264,4002,0,7.66915,-25.3899,-13.318,4002
365711080,-0.731482,-0.172115,0.217801,4001,0,-1.81611,16.4818,-13.3967,4001
365715085,0.195811,0.265121,-0.126806,4005,0,-8.46626,8.95605,-2.36467,4005
365719081,0.384321,0.221322,0.125981,3996,0,14.1575,-23.6079,-16.7379,3996
365723080,-0.712781,-0.262047,-0.00113084,3999,0,-4.43644,10.6082,-10.8912,3999
365727862,0.210057,0.313446,0.00322539,4782,0,-7.7692,6.48654,-4.91247,4782
365731868,0.210199,0.162926,0.19286,4006,0,19.3709,-18.4117,-17.2343,4006
365735860,-0.560438,-0.300997,-0.220529,3992,0,-12.6161,10.2435,-9.66339,3992
365739863,0.228027,0.343023,0.0344053,4003,0,-9.60762,6.26398,-4.51764,4003
365743864,0.186284,0.283633,0.286334,4001,0,20.5147,-11.1986,-15.8182,4001
365747860,-0.275964,-0.155062,-0.270518,3996,0,-9.5561,-0.219072,-10.1059,3996
365751880,-0.0356344,0.277833,0.0990675,4020,0,-9.08592,5.76266,-6.6116,4020
365755876,-0.0681526,0.0731279,0.126457,3996,0,17.8507,0.0234836,-13.5418,3996
365759877,0.164387,-0.0774063,-0.297738,4001,0,-11.0329,-10.0192,-10.7329,4001
365763879,-0.59516,0.392032,0.245479,4002,0,-4.81601,2.59498,-8.04408,4002
365767880,-0.0591708,-0.0512415,0.0160195,4001,0,13.3779,16.9004,-11.69,4001
365772659,0.357666,0.0216616,-0.256767,4779,0,-8.08652,-23.6328,-9.47269,4779
365776660,-1.0801,0.282252,0.37371,4001,0,-0.45123,7.07752,-11.3802,4001
365780661,0.156655,-0.189715,-0.284567,4001,0,6.96756,31.0409,-10.3452,4001
365784662,1.132,0.154667,-0.193199,4001,0,-4.14928,-33.6939,-8.6244,4001
365788680,-1.24487,0.325389,0.27357,4018,0,-1.29553,-11.7213,-10.9031,4018
365792662,-0.198704,-0.14249,-0.0786716,3982,0,1.21206,45.6919,-10.844,3982
365796660,1.34401,0.113798,-0.242466,3998,0,1.02935,-22.766,-7.71409,3998
365800661,-0.856187,0.396784,0.285838,4001,0,0.304284,-32.0364,-12.0613,4001
365804661,-0.602488,-0.147632,0.0152426,4000,0,-4.95957,50.0232,-11.1682,4000
365808660,1.23459,0.204096,-0.185162,3999,0,2.833,-2.67087,-6.12317,3999
365812660,-0.0913545,0.402725,0.339037,4000,0,4.57735,-51.8014,-15.1335,4000
365816679,-1.25155,-0.139011,-0.142086,4019,0,-7.58206,42.6038,-8.16267,4019
365821434,1.16012,0.29145,0.061633,4755,0,1.10584,4.74103,-9.1134,4755
365825483,-0.252377,0.306496,0.217892,4049,0,7.83788,-48.6173,-13.9353,4049
365829483,-1.05495,-0.137269,-0.30518,4000,0,-11.3819,45.4653,-7.35584,4000
365833485,0.88189,0.280528,0.17787,4002,0,0.0846468,11.5847,-9.36546,4002
365837481,0.381249,0.347101,0.335363,3996,0,12.4986,-50.5529,-15.3259,3996
365841435,-1.18705,-0.167593,-0.388865,3954,0,-12.2308,27.166,-7.05887,3954
365845484,0.444893,0.233398,0.225763,4049,0,-2.55804,24.47,-8.17087,4049
365849482,0.79227,0.320538,0.426431,3998,0,15.1257,-42.7267,-15.5503,3998
365853485,-0.95275,-0.171404,-0.345659,4003,0,-10.1511,9.02587,-6.96966,4003
365857484,0.155105,0.135487,0.176123,3999,0,-4.9197,27.6243,-9.73961,3999
365861483,0.889276,0.208826,0.32816,3999,0,13.0242,-25.8473,-14.3294,3999
365866279,-0.479699,0.0482682,-0.127492,4796,0,-6.42182,0.630985,-7.59896,4796
365870277,0.164087,-0.189723,0.111132,3998,0,2.63667,14.0635,-11.2839,3998
365874276,0.505484,-0.144581,-0.0592298,3999,0,4.50224,-12.3383,-11.5912,3999
365878275,-0.231163,0.268656,0.119237,3999,0,-7.25688,-3.12459,-8.13388,3999
365882278,0.155095,-0.233913,0.133007,4003,0,5.23433,12.1132,-13.3557,4003
365886279,0.313131,-0.360771,-0.191677,4001,0,2.41121,-5.45013,-7.63923,4001
365890281,0.0649399,0.0713199,0.124301,4002,0,-5.10976,-12.6961,-10.9491,4002
365894280,-0.40384,-0.254785,-0.0142641,3999,0,1.98872,13.9184,-13.4591,3999
365898278,0.363731,-0.290618,-0.109584,3998,0,1.60852,5.36162,-4.91332,3998
365902285,0.708037,-0.0317407,0.187359,4007,0,-0.470791,-19.8602,-12.7167,4007
365906285,-0.839427,-0.330752,-0.133842,4000,0,-0.78011,5.51157,-12.6593,4000
365911038,0.285354,-0.0551293,0.0265991,4753,0,-1.16362,10.6609,-5.28189,4753
365915080,0.774931,-0.180072,0.251685,4042,0,5.24679,-21.6717,-15.7202,4042
365919078,-0.728692,-0.446263,-0.295718,3998,0,-3.51236,8.71656,-8.90617,3998
365923075,0.289884,0.183109,0.126175,3997,0,-5.99876,11.4607,-7.68711,3997
365927078,0.599146,-0.205457,0.287964,4003,0,10.6522,-17.5868,-12.4154,4003
365931081,-0.472988,-0.44745,-0.261209,4003,0,-2.34721,2.45007,-10.2145,4003
365935081,0.211652,0.149216,0.0682017,4000,0,-10.9166,10.2008,-9.68139,4000
365939037,0.297203,-0.220128,0.146465,3956,0,12.6313,-10.8442,-9.71201,3956
365943082,-0.181173,-0.317881,-0.189026,4045,0,-2.33942,3.11569,-12.1084,4045
365947842,0.234983,0.171869,0.181417,4760,0,-6.13119,-1.83764,-11.594,4760
365951878,0.0495388,-0.334425,-0.165836,4036,0,12.1775,3.06132,-6.79338,4036
365955875,0.109923,-0.102686,-0.0130867,3997,0,-8.53439,-0.777613,-12.8021,3997
365959876,0.0298325,0.157269,0.194049,4001,0,-2.98967,-10.5999,-11.5668,4001
365963839,-0.258859,-0.186058,-0.268887,3963,0,9.73293,15.103,-6.25913,3963
365967877,0.456009,-0.134792,0.0292578,4038,0,-4.74001,-2.91287,-11.6195,4038
365971880,-0.0459521,0.117953,0.148065,4003,0,-5.30846,-18.2466,-11.9591,4003
365975880,-0.501977,-0.0937189,-0.234632,4000,0,9.04554,21.1402,-7.49958,4000
365979879,0.694902,-0.119492,-0.0654418,3999,0,-2.55981,2.21441,-9.2416,3999
365983880,0.0106518,0.0929434,0.151304,4001,0,-5.40602,-26.7033,-12.5662,4001
365987880,-0.674388,-0.0688892,-0.131561,4000,0,6.60057,20.9567,-10.153,4000
365991882,0.600975,0.0148198,-0.0981789,4002,0,-2.26275,10.1716,-6.44483,4002
365995841,0.290224,0.0542252,0.169224,3959,0,-0.805795,-31.8118,-13.6578,3959
366000675,-0.755707,-0.103746,-0.0293495,4834,0,0.321183,20.37,-9.58793,4834
366004678,0.879555,0.20081,0.0543929,4003,0,-2.63709,1.7758,-8.97236,4003
366008685,-0.189795,-0.0265797,0.0142867,4007,0,8.00642,-30.1116,-10.4978,4007
366012646,-0.788273,-0.160746,0.0633216,3961,0,-8.22962,24.0105,-12.1029,3961
366016679,0.555012,0.217318,0.0357243,4033,0,-2.62598,6.57479,-7.31014,4033
366020680,0.00424734,0.0311441,-0.00681295,4001,0,14.6413,-26.3183,-11.8343,4001
366024680,-0.696343,-0.209387,0.107618,4000,0,-13.5964,15.1811,-11.4921,4000
366028680,0.16935,0.197603,0.0297299,4000,0,-2.95725,4.52837,-6.08498,4000
366032676,0.0133819,0.0934447,0.0824487,3996,0,17.3535,-12.758,-14.3294,3996
366036678,-0.467687,-0.120259,0.0217125,4002,0,-15.8841,3.86266,-10.2967,4002
366041461,-0.119316,0.0794582,0.0600706,4783,0,4.50479,1.4678,-7.63405,4783
366045462,-0.0478715,-0.015044,-0.111989,4001,0,8.71239,-1.6133,-15.8887,4001
366049461,-0.303119,0.305077,0.0755753,3999,0,-16.3742,-6.3411,-8.61973,3999
366053477,-0.346699,0.0470826,0.0449692,4016,0,11.4291,9.86899,-6.78201,4016
366057477,0.272218,-0.240822,-0.162479,4000,0,4.27028,1.73782,-14.4777,4000
366061477,-0.110098,0.404157,0.0972613,4000,0,-14.2944,-19.6688,-9.15275,4000
366065480,-0.785447,0.143972,0.00429938,4003,0,8.64604,15.667,-7.57397,4003
366069479,0.606589,-0.306049,-0.222698,3999,0,6.13485,14.8021,-12.9811,3999
366073477,0.321858,0.388664,0.117821,3998,0,-13.3424,-36.3181,-9.7498,3998
366077475,-1.13803,0.143419,-0.0437477,3998,0,6.28742,12.2588,-9.83235,3998
366081477,0.498628,-0.218782,-0.353483,4002,0,4.03016,34.8056,-11.4341,4002
366085477,1.00101,0.479864,0.273079,4000,0,-7.66592,-46.1387,-8.41779,4000
366089480,-1.28462,0.0359411,-0.0046551,4003,0,4.22327,-3.55602,-12.6473,4003
366093480,-0.0109671,-0.0666144,-0.356067,4000,0,-1.99661,52.4121,-9.95118,4000
366098259,1.1053,0.450663,0.305512,4779,0,2.63984,-46.5229,-9.07302,4779
366102260,-1.42488,-0.0701683,0.09865,4001,0,0.315137,7.40816,-14.7218,4001
366106263,0.0822837,-0.018944,-0.378898,4003,0,-7.44322,47.2353,-3.46326,4003
366110262,1.54836,0.544789,0.436061,3999,0,9.35855,-44.7255,-14.5671,3999
366114262,-1.21368,-0.0587707,0.0633722,4000,0,0.774616,-8.52858,-12.0595,4000
366118262,-0.0537714,0.0277327,-0.144004,4000,0,-12.6095,43.3372,-3.14929,4000
366122262,1.31252,0.408014,0.446654,4000,0,14.5876,-28.2484,-16.3776,4000
366126260,-0.691211,-0.118683,-0.127483,3998,0,0.865067,-13.014,-11.089,3998
366130262,0.0535697,0.00626486,-0.104413,4002,0,-16.7645,31.9391,-4.77874,4002
366134260,0.853897,0.325688,0.566686,3998,0,17.1285,-17.581,-15.8308,3998
366138263,-0.28285,-0.0627116,-0.196342,4003,0,0.733176,-15.5852,-10.7814,4003
366143036,-0.00705379,-0.0663232,-0.11658,4773,0,-10.8928,21.8704,-7.85984,4773
366147082,0.620913,0.180168,0.4684,4046,0,14.8247,-13.761,-14.0613,4046
366151036,-0.0251334,0.107885,-0.344733,3954,0,-6.974,-9.29107,-6.85252,3954
366155036,-0.143954,-0.00315028,0.0944342,4000,0,-2.27671,13.5182,-14.3314,4000
366159034,0.285979,-0.30328,-0.0154159,3998,0,9.98306,-0.379172,-9.70423,3998
366163044,0.295749,0.0567581,-0.256836,4010,0,-9.64067,-13.3784,-7.36658,4010
366167037,-0.40545,0.171339,0.390811,3993,0,0.701228,6.50718,-16.4059,3993
366171036,0.304614,-0.248247,-0.160999,3999,0,6.07531,11.6265,-7.25289,3999
366175083,0.672695,-0.0456654,-0.30867,4047,0,-3.58321,-21.0547,-9.48269,4047
366179037,-0.872983,0.0155151,0.215388,3954,0,0.0412175,0.167958,-13.7447,3954
366183082,0.168767,-0.197993,-0.11825,4045,0,-1.11344,21.4996,-8.72245,4045
366187889,0.787696,0.142239,-0.00812021,4807,0,2.42467,-18.4646,-10.5005,4807
366191880,-0.86704,-0.243434,0.0264587,3991,0,-0.852006,1.81329,-14.6821,3991
366195882,0.298994,0.0421665,-0.0175197,4002,0,-6.16481,15.8985,-3.35128,4002
366199876,0.615568,0.216998,0.320319,3994,0,8.81513,-16.2532,-14.6653,3994
366203886,-0.652759,-0.183157,-0.235634,4010,0,-2.45153,-2.00161,-11.9533,4010
366207834,0.34343,0.0718961,-0.0787151,3948,0,-7.62409,16.2349,-6.40428,3948
366211882,0.351643,0.206485,0.472149,4048,0,9.11913,-13.4487,-13.5732,4048
366215835,-0.201359,-0.00817456,-0.318831,3953,0,-1.96772,-2.5465,-9.7186,3953
366219834,0.161623,0.206092,-0.0317169,3999,0,-8.02607,12.5223,-10.6849,3999
366223883,0.208721,0.103147,0.347473,4049,0,10.5917,-11.4218,-9.79386,4049
366227834,-0.0220373,-0.0388207,-0.273787,3951,0,-2.12921,1.54543,-9.71528,3951
366231835,0.185231,0.388248,0.122574,4001,0,-10.4793,8.10653,-11.7742,4001
366236645,0.31082,0.0591403,0.169799,4810,0,12.2233,-8.01734,-10.149,4810
366240678,-0.0339434,-0.062119,-0.24007,4033,0,-7.84731,5.79927,-9.99661,4033
366244678,0.438226,0.534428,0.263479,4000,0,-6.55425,-4.77134,-12.8519,4000
366248678,-0.0806919,-0.0397667,-0.0342509,4000,0,13.6379,0.973524,-7.62715,4000
366252677,0.26794,-0.0195467,-0.155388,3999,0,-5.9243,3.55814,-11.0852,3999
366256679,0.313651,0.347666,0.299894,4002,0,-5.80472,-11.3591,-13.2062,4002
366261481,-0.156316,-0.0269381,-0.161306,4802,0,9.02819,9.6538,-8.0626,4802
366265480,0.532903,0.0152417,0.00856365,3999,0,-5.75153,-3.14346,-10.008,3999
366269479,-0.0327027,0.0791839,0.203838,3999,0,-2.56272,-14.4424,-14.0886,3999
366273478,-0.261426,-0.085424,-0.205303,3999,0,5.48697,17.9956,-8.02311,3999
366277479,0.68656,0.173674,0.125836,4001,0,-2.54054,-6.13368,-8.97989,4001
366281476,-0.258252,-0.10967,0.0805674,3997,0,0.654391,-14.8267,-12.3979,3997
366285478,-0.318925,-0.156711,-0.139576,4002,0,-0.683689,19.557,-9.08788,4002
366289479,0.670146,0.196261,0.187784,4001,0,-0.20675,-4.9505,-9.88472,4001
366293479,-0.284046,-0.174954,0.0140677,4000,0,5.33214,-16.9131,-10.7723,4000
366297478,-0.42814,-0.166067,-0.104529,3999,0,-7.91203,20.477,-10.3575,3999
366301478,0.587587,0.0664652,0.236681,4000,0,1.86563,-1.78336,-9.6715,4000
366305478,-0.0607652,-0.161589,-0.0715996,4000,0,9.43346,-19.3526,-11.0253,4000
366309478,-0.621287,-0.196252,-0.0427667,4000,0,-12.9491,15.6428,-11.4399,4000
366313475,0.29319,0.0134421,0.0999198,3997,0,1.73253,2.3685,-6.66238,3997
366317480,0.176701,-0.166778,0.00634887,4005,0,12.6961,-12.4628,-14.4219,4005
366321478,-0.481088,-0.028085,0.0812288,3998,0,-15.5047,4.20268,-8.56582,3998
366326250,0.0305827,-0.159679,-0.0452403,4772,0,7.92385,3.31238,-7.81211,4772
366330279,0.189898,-0.307263,-0.0862915,4029,0,0.652237,-4.9392,-15.5323,4029
366334281,-0.452137,0.34272,0.195036,4002,0,-12.0038,-8.39335,-8.93852,4002
366338278,-0.253347,-0.201229,-0.103412,3997,0,12.1846,18.4472,-6.29295,3997
366342279,0.689277,-0.42437,0.00631421,4001,0,0.106325,-3.21606,-14.1897,4001
366346280,-0.339651,0.275045,0.0904611,4001,0,-10.5152,-26.7345,-10.0847,4001
366350276,-0.749334,-0.0920402,-0.145069,3996,0,8.55083,28.4449,-7.60289,3996
366354277,0.886769,-0.377297,-0.140936,4001,0,1.25369,10.2735,-11.2102,4001
366358282,0.216226,0.307796,0.204166,4005,0,-7.55696,-42.2384,-11.118,4005
366362279,-1.1091,-0.103449,-0.0518905,3997,0,5.31844,23.1458,-10.234,3997
366366281,0.641895,-0.198792,-0.285936,4002,0,-0.0121142,28.9841,-8.00038,4002
366371080,0.205902,0.218781,0.253353,4799,0,-0.278856,-47.234,-11.8066,4799
366375079,-1.21251,-0.29872,-0.135932,3999,0,-0.411759,37.4041,-10.9843,3999
366379087,0.954653,0.147694,-0.138638,4008,0,-4.11597,21.88,-7.68888,4008
366383081,0.319733,0.164326,0.422235,3994,0,10.1704,-55.3584,-10.6917,3994
366387040,-1.25883,-0.367309,-0.1565,3959,0,-7.51963,26.9537,-13.9573,3959
366391082,0.54103,0.134752,-0.00546552,4042,0,-6.18422,26.4543,-5.83655,4042
366395080,0.590108,0.23596,0.425557,3998,0,16.4808,-44.6841,-11.8604,3998
366399076,-0.911363,-0.366556,-0.0968659,3996,0,-12.0283,18.315,-13.4277,3996
366403075,0.474964,0.111997,0.172467,3999,0,-5.72869,21.0282,-5.44046,3999
366407082,0.485793,0.230222,0.3273,4007,0,18.7378,-35.3758,-14.3714,4007
366411082,-0.618103,-0.327208,-0.187443,4000,0,-13.384,12.8155,-11.219,4000
366415036,0.217288,0.0662375,0.124896,3954,0,-5.28507,16.0425,-6.16406,3954
366419863,0.384689,0.129125,0.269409,4827,0,13.6176,-18.5925,-13.5677,4827
366423861,-0.293722,-0.120494,-0.270115,3998,0,-16.558,10.7499,-9.89967,3998
366427862,0.181677,-0.309917,0.180209,4001,0,9.2781,2.84827,-8.02713,4001
366431861,0.197559,0.0174494,-0.0222337,3999,0,3.1062,-9.00345,-14.3876,3999
366435862,-0.195506,0.302825,-0.0181568,4001,0,-13.358,0.137613,-7.28043,4001
366439865,-0.0945187,-0.370879,0.219046,4003,0,16.0281,9.41761,-11.3254,4003
366443863,0.43343,-0.345818,-0.293398,3998,0,-2.89613,-7.30777,-11.6145,3998
366447861,-0.475489,0.234808,0.0463118,3998,0,-10.2075,-15.3366,-7.905,3998
366451865,-0.682761,-0.371594,0.153213,4004,0,12.6739,24.5628,-14.9669,4004
366455864,0.813412,-0.346903,-0.382369,3999,0,-3.60521,-2.27482,-7.00233,3999
366459861,-0.34936,0.203927,0.019181,3997,0,-3.22888,-29.8787,-9.24252,3997
366464682,-0.767253,-0.457228,0.0587464,4821,0,0.904143,30.2365,-14.6823,4821
366468683,0.954336,0.0578243,-0.0598335,4001,0,-1.04221,-14.5367,-6.17442,4001
366472683,-0.798638,-0.201876,0.0655707,4000,0,8.74889,-26.2371,-9.82665,4000
366476683,-0.708591,-0.384496,-0.107748,4000,0,-16.0492,40.5388,-14.9712,4000
366480638,0.850664,0.205553,0.268612,3955,0,6.3586,-12.6293,-6.05576,3955
366484674,-0.70471,-0.253521,-0.0238925,4036,0,14.1369,-30.7986,-13.0568,4036
366488652,-0.824812,-0.300449,-0.33209,3978,0,-24.342,37.9553,-11.341,3978
366492684,0.597184,0.164009,0.545725,4032,0,9.34752,-6.46246,-6.34442,4032
366496682,-0.436879,-0.0857148,0.00861388,3998,0,15.0961,-26.9969,-15.6247,3998
366501478,-0.543273,-0.145864,-0.329317,4796,0,-20.5327,24.3677,-7.93169,4796
366505476,0.350688,0.0393253,0.554844,3998,0,17.8734,-12.4293,-9.83102,3998
366509483,-0.439431,-0.0550149,-0.141363,4007,0,2.5027,-9.59557,-14.4724,4007
366513435,-0.432065,0.026228,-0.193026,3952,0,-13.9099,9.68933,-8.09109,3952
366517436,-0.0561374,-0.276233,0.190746,4001,0,16.7561,-0.638196,-11.3753,4001
366521483,-0.161919,0.0802969,-0.249522,4047,0,-10.8107,-6.96262,-11.7646,4047
366525481,-0.572512,0.0858744,0.194297,3998,0,-1.4891,-0.910898,-9.48021,3998
366529483,-0.166945,-0.213758,-0.0268556,4002,0,10.0241,14.6185,-12.2769,4002
366533483,0.289432,0.00869877,-0.385238,4000,0,-9.46431,-16.9357,-9.333,4000
366537481,-0.932453,0.0644159,0.1464,3998,0,1.68248,-5.76003,-10.4613,3998
366541436,-0.314847,-0.212606,-0.0552975,3955,0,3.0204,25.7778,-13.2134,3955
366545483,0.661751,0.139032,-0.317812,4047,0,-4.44498,-16.5792,-6.21525,4047
366549484,-0.80195,0.0367133,0.144576,4001,0,4.09119,-11.9765,-13.1541,4001
366553484,-0.320569,-0.132126,0.0347858,4000,0,-5.08482,26.6272,-11.8502,4000
366558280,0.584064,0.226137,-0.0616027,4796,0,3.83018,-16.4851,-9.25042,4796
366562283,-0.858894,-0.157736,0.0120113,4003,0,0.675055,-0.916403,-14.0256,4003
366566282,0.222077,0.0788981,-0.0122366,3999,0,-9.4599,19.0525,-4.4681,3999
366570281,0.424456,0.278646,0.244485,3999,0,10.7039,-16.5628,-14.3571,3999
366574275,-0.49677,-0.121607,-0.237675,3994,0,-0.932374,-2.46182,-11.8528,3994
366578241,0.228475,0.0647756,-0.0892463,3966,0,-9.85405,13.0267,-7.45031,3966
366582278,0.0568988,0.210366,0.39577,4037,0,10.9085,-10.6041,-12.2892,4037
366586276,-0.0475067,-0.0367476,-0.420267,3998,0,-2.27467,1.71222,-11.1717,3998
366590282,0.231687,0.290853,0.112396,4006,0,-9.21202,3.55109,-10.8666,4006
366594273,-0.00255673,0.0378118,0.192664,3991,0,13.8604,-4.7563,-8.76734,3991
366599080,-0.0520831,-0.157911,-0.376277,4807,0,-6.53061,2.33384,-10.122,4807
366603081,0.329546,0.538274,0.370886,4001,0,-2.27558,-4.5875,-13.8011,4001
366607076,-0.0126321,-0.211547,-0.197613,3995,0,10.7321,4.25749,-7.42851,3995
366611042,0.0820387,-0.030541,-0.193249,3966,0,-7.94202,-2.40545,-10.9565,3966
366615080,0.0948843,0.295877,0.319598,4038,0,-0.309031,-9.14922,-14.1236,4038
366619078,-0.390472,-0.17171,-0.332343,3998,0,6.53527,13.0079,-6.04883,3998
366623076,0.540545,0.0284435,0.0679666,3998,0,-4.29191,-3.21054,-11.0191,3998
366627082,-0.165755,0.0295439,0.132654,4006,0,-0.079147,-15.0761,-12.9643,4006
366631081,-0.498394,-0.126259,-0.372083,3999,0,1.92082,18.0818,-8.35862,3999
366635082,0.590567,0.142873,0.171211,4001,0,-0.888824,-2.21368,-9.8344,4001
366639040,-0.219571,-0.124568,0.0661888,3958,0,2.10001,-17.4764,-11.6121,3958
366643080,-0.435578,-0.154269,-0.291679,4040,0,-3.66202,18.3829,-9.65562,4040
366647084,0.526144,0.164848,0.196609,4004,0,1.17502,-1.02676,-10.1227,4004
366651879,-0.225807,-0.173176,-0.0476331,4795,0,2.51286,-12.44,-11.0413,4795
366655841,-0.348001,0.00815531,-0.135791,3962,0,-7.5736,19.428,-7.54158,3962
366659879,0.605882,-0.00218391,0.191054,4038,0,6.57577,-9.61586,-14.4127,4038
366663883,-0.401288,-0.168895,-0.117088,4004,0,2.85809,-11.6517,-7.6542,4004
366667880,-0.464077,0.0839043,-0.0147184,3997,0,-12.632,18.1229,-10.6983,3997
366671876,0.418577,-0.0194973,0.0337471,3996,0,8.71232,-3.56159,-11.2795,3996
366675879,-0.0538614,-0.150814,-0.0198014,4003,0,5.55324,-11.1544,-10.2569,4003
366679840,-0.403549,0.2461,0.0968823,3961,0,-16.1976,7.6114,-10.9245,3961
366683876,-0.000532885,-0.153075,-0.141007,4036,0,11.7254,2.47206,-8.13708,4036
366687880,0.18833,-0.192973,-0.121474,4004,0,1.73074,-5.88688,-13.9643,4004
366692677,-0.456081,0.381969,0.165783,4797,0,-9.0904,-2.87409,-9.14228,4797
366696677,-0.163699,-0.333968,-0.203165,4000,0,14.2995,16.2027,-10.3332,4000
366700676,0.572773,-0.134918,0.0432688,3999,0,-7.43449,-14.0739,-9.92364,3999
366704676,-0.763453,0.437121,0.1079,4000,0,-6.62737,-12.7208,-11.353,4000
