timestamp,roll,pitch,yaw,thrust
362157609,0.0329911,-0.00215703,-0.000305475,0.437329
362190422,0.0383899,0.0154688,-0.000188649,0.461811
362219268,0.0527109,-0.00731155,0.00140885,0.482691
362251224,0.0284957,-0.0190408,-0.00167158,0.506481
362284013,0.0395343,-0.0224006,-0.000568109,0.531445
362316769,0.0771074,0.00120254,-0.00129825,0.558127
362345609,-0.00534425,0.0208575,-0.00135076,0.577134
362377605,0.056557,0.0303948,-0.00159249,0.601429
362410409,0.0642636,0.0429191,-0.000236579,0.628412
362442416,0.0323309,-0.0716369,0.000617739,0.651967
362471187,0.0699041,0.0350877,0.000633997,0.673338
362503969,0.0217261,0.0287577,0.000968259,0.700292
362535981,0.0308928,-0.00803044,0.000669575,0.724102
363961614,-0.524653,-0.463312,-0.134696,0.265677
363993610,-0.45806,0.292734,-0.134558,0.264172
364026420,0.437947,0.237927,-0.140306,0.261865
364058392,-0.0504575,-0.521797,-0.131603,0.262958
364091170,-0.334865,0.187345,-0.132925,0.264182
364119988,0.471849,0.054475,-0.134473,0.267715
364151990,0.0993942,0.0606493,-0.133332,0.267373
364184771,-0.119984,-0.195344,-0.132582,0.269851
364213622,-0.845609,0.0495087,-0.127975,0.272262
364245568,0.735474,0.479549,-0.150802,0.272728
364278396,0.0202664,-0.110945,-0.137429,0.276804
364311214,-0.0818831,0.23603,-0.137183,0.275603
364340015,0.390564,0.0481321,-0.137398,0.274198
364372023,-0.385213,0.055284,-0.1288,0.27582
364404812,-0.123209,0.248109,-0.131669,0.27327
364437580,0.409338,0.402883,-0.134225,0.272129
364465597,-0.260562,0.327765,-0.120975,0.27386
364498420,0.32538,0.0675961,-0.12084,0.275285
364531224,0.516315,-0.0798692,-0.11494,0.278982
364563233,0.0862671,-0.0244135,-0.121272,0.275724
364591992,0.152267,-0.56081,-0.110839,0.279205
364624813,-0.130755,0.093207,-0.118063,0.279595
364656814,1.33101,0.261067,-0.132279,0.280171
364689601,-0.679448,-0.560261,-0.121947,0.280338
364718413,0.114852,0.267909,-0.123188,0.278425
364750419,0.530771,0.305818,-0.124885,0.275377
364783212,-0.0299221,-0.281021,-0.104795,0.274372
364811975,0.306808,0.142557,-0.10967,0.274296
364843989,-0.158725,0.18887,-0.104545,0.276274
364876814,0.211949,0.232043,-0.110171,0.278406
364909604,0.152482,-0.0383771,-0.106035,0.288222
364938412,-0.337284,0.315133,-0.107154,0.288739
364970416,1.24401,0.281739,-0.116599,0.297011
365003196,-0.732628,-0.542067,-0.0979012,0.300956
365036020,0.124812,0.159855,-0.107038,0.303123
365064020,0.310362,-0.111034,-0.101247,0.306725
365096795,-0.413049,-0.0910573,-0.102916,0.309346
365129567,0.0720159,0.220758,-0.107454,0.309003
365161594,0.21644,-0.128021,-0.0988031,0.311369
365190369,-0.555589,0.049522,-0.0979653,0.315309
365223229,0.452021,0.429323,-0.113006,0.316789
365256009,-0.220573,-0.236541,-0.0940305,0.3198
365288016,0.25611,0.0335014,-0.0928775,0.320359
365316797,1.0805,0.541383,-0.11654,0.317959
365348813,-0.168401,-0.249998,-0.0852882,0.317483
365381608,0.340722,0.110188,-0.0822619,0.317074
365410401,0.1891,0.298318,-0.0842902,0.3143
365442396,-0.0703068,0.0612012,-0.0797549,0.317176
365475199,0.561641,-0.02578,-0.0760228,0.317215
365507985,-0.781085,-0.0553078,-0.0728775,0.32244
365536007,-0.769997,-0.221969,-0.0780625,0.3232
365568800,0.27444,-0.14347,-0.0758274,0.323691
365601615,-0.409558,0.0596634,-0.0757955,0.323948
365634428,-0.149293,0.12219,-0.076461,0.31925
365662420,0.127057,-0.247662,-0.0732337,0.322733
365695202,-0.21576,0.0593569,-0.0744582,0.326021
365727975,0.0706551,0.188621,-0.079628,0.32471
365760008,-0.00613056,0.394251,-0.0827204,0.327204
365788814,0.393963,0.0465432,-0.0741672,0.330514
365821578,-0.201959,-0.106613,-0.0747395,0.331809
365853621,0.642304,0.220688,-0.0889197,0.33114
365886413,-0.147804,0.0307877,-0.0847986,0.332481
365915216,-0.212702,-0.0306677,-0.0818715,0.338455
365947985,0.0846557,0.101104,-0.0832612,0.33718
365979994,-0.186558,0.187277,-0.0805705,0.340636
366012784,0.622388,0.222859,-0.0860417,0.344439
366041576,0.111694,-0.127956,-0.0797729,0.344773
366073618,-0.443609,0.283297,-0.0771536,0.346409
366106405,0.527445,0.0894147,-0.0806029,0.346143
366138394,0.129034,0.221153,-0.0890854,0.348804
366167182,0.378064,-0.0366349,-0.0797237,0.352235
366200011,-0.201948,-0.118118,-0.0782618,0.352709
366231976,0.14254,0.0684961,-0.0818469,0.351982
366261612,0.240515,-0.214401,-0.0802564,0.350633
366293594,-0.0911934,-0.0835125,-0.0833738,0.354669
366326384,0.0284,-0.249065,-0.0810991,0.356777
366358424,-0.590797,0.0648234,-0.0808244,0.35974
366387189,0.646654,0.156056,-0.08933,0.364225
366419999,-0.571734,-0.268066,-0.0887879,0.36558
366451982,0.269183,-0.207151,-0.0842941,0.367459
366484810,-0.265227,-0.0375707,-0.0871232,0.368395
366513573,0.244187,0.284599,-0.0938039,0.366286
366545615,-0.375291,0.144275,-0.0823865,0.365846
366578391,0.216892,0.140729,-0.0811434,0.364318
366611158,-0.0361718,0.249546,-0.0788356,0.360597
366639226,-0.0952984,0.0723379,-0.07414,0.356158
366672002,-0.207997,-0.169744,-0.0702517,0.351619
366704809,0.112555,0.0832665,-0.0686461,0.346629
366736812,-0.377671,0.118945,-0.0618861,0.342549
366765581,-0.652577,-0.0852561,-0.0672505,0.342986
366798415,-0.300333,-0.26862,-0.0684944,0.339288
366830381,-0.14055,0.0434437,-0.0665037,0.335881
366863165,-0.368595,-0.228114,-0.069175,0.3319
366892004,0.152118,0.227997,-0.0747936,0.330747
366924796,0.261691,0.0699702,-0.0705448,0.326611
366956822,-0.131246,-0.010848,-0.0679624,0.327955
366985617,0.222155,0.324327,-0.068455,0.322139
367018418,0.591492,-0.105061,-0.0628871,0.322492
367050420,-0.504735,-0.0677964,-0.059902,0.325199
367083185,0.0869652,-0.184238,-0.0611174,0.324079
367111994,-0.0512929,0.0963794,-0.0601512,0.319892
367143999,0.623436,0.291347,-0.0641745,0.300118
367176806,0.0426366,-0.301903,-0.0551131,0.274598
367209613,-0.0851023,0.135922,-0.0496766,0.255071
367237610,0.850235,0.29061,-0.0562755,0.236655
367270417,0.0415361,-0.423004,-0.0444365,0.219385
367303212,-0.28046,0.550052,-0.0415468,0.199803
367335233,1.32728,-0.0412242,-0.0412335,0.188494
367364017,1.46937,-0.0930293,-0.0460876,0.179275
367396793,-1.70539,-0.297709,-0.0714404,0.170161
367428797,1.14619,0.434059,-0.0991964,0.158237
367461598,-0.358089,0.505621,-0.0835609,0.150895
367494356,0.875619,-0.431695,-0.0726606,0.140436
367527222,-0.49229,0.483602,-0.0958539,0.135745
367559269,0.957967,-0.631853,-0.0914036,0.131359
367588008,0.751381,-0.867694,-0.106871,0.129561
367620809,-0.351903,0.63623,-0.168612,0.129661
367652812,-0.0651112,0.960122,-0.209402,0.128558
367685623,0.527672,0.0599794,-0.232895,0.126733
367718403,-0.152713,-0.805621,-0.25274,0.127199
367750428,-0.481737,-0.736755,-0.29412,0.128873
367783196,-0.436661,0.350024,-0.335205,0.123106
367811993,-0.480771,-0.232189,0.189065,0.12052
367843970,-0.355626,-0.685617,0.162342,0.12455
367876819,0.870673,-1.83873,0.193742,0.126278
367909607,-0.24256,-1.68821,0.093186,0.127599
367938415,-0.500884,-1.95375,0.0390818,0.136699
367970422,0.163337,-2.54848,0.0367161,0.142741
368003219,1.12509,-2.31965,0.0640692,0.152946
368031222,1.20306,-2.09948,0.0226502,0.163834
368064003,-0.631432,-1.11826,-0.121926,0.162116
368096789,-0.450962,-1.19093,-0.159149,0.17087
368129618,0.170344,-1.64014,-0.17199,0.173587
368161611,-0.268287,-0.519451,-0.264124,0.175906
368194374,-0.276956,-0.315751,-0.311991,0.177968
368227221,-0.102865,-0.755495,-0.351169,0.187725
368255222,-0.0881203,-0.540821,-0.389616,0.192904
368288015,-0.483634,-0.179614,-0.428679,0.19566
368320796,0.788697,-0.400357,-0.438497,0.202751
368352819,-0.69711,0.265594,-0.46032,0.205393
368385620,1.01684,-0.206704,-0.470725,0.214281
368418403,-1.05712,0.0296359,-0.480903,0.22152
368451180,0.640268,-0.199164,-0.485633,0.223778
368483218,-0.176324,-0.716255,-0.479228,0.233097
368512016,0.450603,-0.257521,-0.483664,0.230392
368544814,0.0819117,-0.530348,-0.471021,0.239589
368576791,-0.134657,-0.291664,-0.460527,0.238027
368609625,-0.386715,-0.418301,-0.441798,0.247732
368638398,-0.262716,-0.541504,-0.417274,0.25117
368670418,-0.257198,-0.0501451,-0.397303,0.248083
368703230,0.745157,-0.161213,-0.373482,0.257463
368732006,-0.468449,-0.28827,-0.354873,0.260342
368763998,-0.186663,-0.0711943,-0.33262,0.254578
368796790,0.447321,0.203301,-0.320527,0.256356
368829615,-0.699108,0.314601,-0.291413,0.252477
368861613,-0.0572915,0.997419,-0.280901,0.239821
368890362,-0.00228658,0.733011,-0.272046,0.248603
368923217,-0.422153,0.911647,-0.23123,0.231404
368956019,0.214168,0.55594,-0.239169,0.23795
368984023,-0.117972,0.527498,-0.2131,0.236007
369016806,-0.720459,0.327619,-0.198052,0.232403
369049575,0.363641,0.37208,-0.201846,0.221346
369081594,-0.418196,0.263882,-0.182787,0.21814
369110396,-0.00106833,-0.416621,-0.197006,0.222822
369143169,-0.680931,-0.105931,-0.192312,0.217404
369175232,0.180244,-0.0797631,-0.18303,0.207268
369207987,0.362769,-0.0728364,-0.191781,0.202181
369240811,-0.751884,-0.484301,-0.210833,0.202949
369273577,-0.0746336,0.0347211,-0.193653,0.191253
369305589,-0.517076,-0.640621,-0.241066,0.181322
369334415,1.00693,-0.454494,-0.231029,0.168862
369366420,-1.23027,-0.450602,-0.290583,0.172104
369399265,0.377147,-0.422483,-0.304127,0.163067
369432009,0.555575,-0.887147,-0.325487,0.1608
369459975,0.563075,-1.21445,-0.359796,0.152715
369492820,-0.886867,-0.78384,-0.429694,0.155822
369525607,-0.555397,-0.660266,-0.44404,0.154978
369557601,-0.441146,-0.772462,-0.485692,0.150962
369586418,0.934851,-0.39313,-0.480959,0.156176
369619254,-0.75058,-0.0818304,-0.533655,0.164955
369651985,0.562838,-0.162957,-0.568528,0.156388
369684019,-1.03084,-0.292102,-0.622004,0.169793
369712813,0.645459,-0.145549,-0.649907,0.154141
369745600,-0.471992,-0.192457,-0.715535,0.153567
369777578,0.613299,-0.84369,-0.749227,0.158157
369806415,0.660419,-0.886329,-0.785398,0.158833
369839267,0.819581,-0.663049,-0.785398,0.15739
369871176,-0.660275,0.384295,-0.785398,0.14948
369904002,0.39781,-0.393383,-0.785398,0.159552
369932773,0.357972,0.377645,-0.785398,0.145636
369965611,0.702052,-0.273838,-0.785398,0.163657
369997609,-1.02129,0.11537,-0.785398,0.151061
370030417,0.0516218,-0.388426,-0.785398,0.168224
370058384,-1.57919,-0.783285,-0.785398,0.169096
370091180,-0.203885,-0.64489,-0.785398,0.16663
370124012,-0.137385,-0.557276,-0.785398,0.171951
370155988,-0.443131,-0.00637889,-0.785398,0.154547
370184801,0.286546,-0.539991,-0.785398,0.1632
370217606,-1.12131,-0.70305,-0.785398,0.178986
370250397,0.839439,-0.37139,-0.785398,0.154631
370282415,-0.534313,-0.71489,-0.785398,0.168259
370311224,0.217536,-0.8994,-0.785398,0.172948
370344020,-1.45781,-0.595986,-0.785398,0.156872
370376023,-0.0985547,-0.294948,-0.785398,0.160083
370404778,-1.48541,-0.255245,-0.785398,0.162172
370437575,0.335378,-0.24355,-0.785398,0.16087
370469596,-0.553156,-0.8955,-0.785398,0.15792
370502401,-0.670756,-0.075914,-0.785398,0.157696
370531216,-1.09405,-1.15863,-0.785398,0.163514
370563223,-0.541745,-0.267334,-0.785398,0.149029
370596010,-0.185191,-0.992864,-0.785398,0.169025
370628812,-1.2775,-1.36504,-0.785398,0.154909
370656793,0.888884,3.83972,-0.785398,0.148975
370689606,0.687604,3.83972,-0.785398,0.14256
370722409,1.08809,3.83972,-0.785398,0.151045
370754417,0.540771,3.83972,-0.785398,0.157858
370783201,0.219729,3.83972,-0.785398,0.17134
370816021,0.151452,3.51435,-0.785398,0.188526
370847968,0.492055,2.48253,-0.785398,0.197971
370876818,-0.276539,1.43471,-0.785398,0.203747
370909609,-0.400991,0.3215,-0.785398,0.229426
370942415,-0.363588,-0.628829,-0.785398,0.235602
370974394,-0.107349,-2.07022,-0.785398,0.208688
371007219,-0.950281,-3.11746,-0.785398,0.186022
371036004,-0.827746,-3.53607,-0.785398,0.193975
371068007,-1.05779,-3.83972,-0.785398,0.192698
371100800,-1.02757,-3.83582,-0.785398,0.208166
371129619,-0.613651,-3.68878,-0.785398,0.224166
371161568,-0.730656,-2.92308,-0.785398,0.259292
371194412,-0.929385,-2.35323,-0.785398,0.279439
371227228,-1.05771,-2.06501,-0.785398,0.291081
371255219,-0.978504,-1.71948,-0.785398,0.305898
371288001,-1.27885,-0.942206,-0.785398,0.3373
371320815,-0.653095,-0.528897,-0.785398,0.330594
371352813,-0.0483341,-0.399352,-0.785398,0.336027
371381597,-0.552456,-0.283595,-0.785398,0.338271
371414395,-0.459196,0.0356742,-0.785398,0.329308
371447156,0.357881,0.0648841,-0.758527,0.312213
371479233,-0.461293,-0.11214,-0.720652,0.296782
371508014,-0.588792,-0.220027,-0.687794,0.290513
371539956,0.584123,-0.118073,-0.62226,0.261038
371572818,-0.00983498,-0.108977,-0.587723,0.260688
371605597,0.285267,-0.0378596,-0.536452,0.254203
371638411,0.418899,-0.36391,-0.508175,0.241969
371670408,-0.698261,-0.625147,-0.506087,0.227402
371703197,0.108698,0.254753,-0.421415,0.233395
371736011,1.10745,0.0772767,-0.402545,0.217763
371767996,-0.478987,-1.06616,-0.428403,0.2122
371800820,0.451786,-1.36367,-0.373634,0.12
371829619,0.378807,-1.33208,-0.355317,0.12
371861573,0.269122,-1.23819,-0.338127,0.12
371894412,0.309269,0.455589,-0.322191,0.232812
371927212,0.541183,0.721166,-0.341292,0.228843
371955216,0.168242,0.466934,-0.342578,0.232882
371988016,-0.287653,0.697853,-0.342845,0.234759
372020805,0.506669,0.394078,-0.347369,0.234934
372053597,-0.175585,0.0475131,-0.326952,0.235539
372081595,0.387431,0.4338,-0.339995,0.236912
372114417,0.67247,0.0835688,-0.326453,0.229522
372147167,-0.462795,0.184983,-0.304868,0.229805
372179269,0.496619,0.155317,-0.315881,0.229902
372208010,-0.428612,0.429042,-0.302182,0.225017
372240812,0.479175,0.130849,-0.304849,0.223478
372272796,-0.523893,0.0663486,-0.284687,0.210119
372305620,0.949993,1.01029,-0.35297,0.217458
372334398,0.0291738,0.50993,-0.3027,0.211257
372366416,0.328049,0.307941,-0.296873,0.21406
372399255,-0.352473,-0.010017,-0.263798,0.207422
372428004,0.594442,0.154528,-0.283239,0.211952
372460001,-0.244564,-0.116234,-0.250454,0.204851
372492818,-0.0609219,0.419021,-0.278085,0.203661
372525594,0.671806,0.593356,-0.291562,0.21526
372554425,0.489328,0.111308,-0.24536,0.217608
372586415,-0.414122,0.724636,-0.255633,0.22311
372619266,0.848594,0.193714,-0.231967,0.227762
372652020,-1.356,0.0259987,-0.185878,0.221342
372680021,0.00321463,0.0176216,-0.189567,0.228215
372712795,-0.351364,0.401974,-0.193449,0.223214
372745583,0.0425145,-0.0197682,-0.16257,0.224929
372777589,-0.59941,0.442621,-0.169668,0.222411
372810424,-0.413789,-2.89459,-0.785398,0.208124
372843221,-2.38046,-3.45845,-0.785398,0.20036
372876024,-1.68999,-2.74597,-0.785398,0.203423
372904001,-1.09662,-2.02566,-0.785398,0.205341
372936817,-0.707168,-1.50632,-0.785398,0.215294
372968810,-1.11078,-0.312901,-0.785398,0.236126
373001599,0.589766,0.293581,-0.785398,0.226705
373030400,0.071969,0.41003,-0.785398,0.217255
373062410,-0.861253,0.748349,-0.785398,0.212933
373095196,1.52703,0.685511,-0.785398,0.213168
373127979,-0.759717,0.407673,-0.785398,0.210417
373156008,-0.0744553,0.533438,-0.785398,0.211999
373188817,0.42319,0.643527,-0.785398,0.218459
373221612,0.0509086,0.651419,-0.785398,0.22521
373250412,0.666182,0.742531,-0.785398,0.229976
373282413,-0.102472,0.633879,-0.785398,0.232911
373315197,0.435317,1.05978,-0.785398,0.235004
373348011,0.630154,0.502278,-0.785398,0.235043
373380020,-0.0234162,-0.101526,-0.785398,0.23782
373408794,0.437194,0.306522,-0.785398,0.236313
373441585,-0.099283,-0.401958,-0.698687,0.240065
373473617,-0.886079,0.0241068,-0.661834,0.234106
373502419,-0.286028,-0.549406,-0.592148,0.238508
373535214,-0.269508,0.0158624,-0.564302,0.228897
373567989,0.569747,-0.0435202,-0.518353,0.234301
373600017,0.206107,-1.09225,-0.395993,0.231422
373628766,0.49147,-0.78217,-0.374938,0.228242
373661615,-0.0447796,-1.20295,-0.31305,0.225832
373693623,-0.18709,-1.12989,-0.273896,0.229833
373726405,0.0208591,-1.83643,-0.188821,0.224255
373758402,-0.04448,-0.725058,-0.221199,0.228699
373791191,0.515002,-1.2568,-0.143201,0.230367
373823998,-0.578662,-1.03097,-0.155982,0.241214
373852781,-0.173866,-1.00024,-0.12496,0.241879
373885610,-0.73666,-0.431198,-0.128274,0.239784
373917609,0.747856,-0.519659,-0.0874476,0.253784
373950420,-0.313573,-0.383806,-0.0899446,0.248307
373982401,-0.127586,-0.814177,-0.0672536,0.250884
374015217,0.301446,-0.207892,-0.0702797,0.256372
374047985,-0.359327,-0.315994,-0.0570322,0.247013
374080006,0.314345,-0.45528,-0.0433213,0.258014
374108795,0.337328,-0.350765,-0.0405324,0.256053
374141623,-0.033491,-0.519761,-0.0372531,0.25581
374173623,-0.376996,-0.331496,-0.0362637,0.260667
374202411,0.37681,-0.354094,-0.0250171,0.262966
374235202,-0.168008,-0.500566,-0.0197619,0.25597
374268008,-0.28182,-0.416943,-0.020175,0.258796
374300003,0.414395,-0.522718,-0.0114124,0.263449
374328790,-0.258912,-0.597372,-0.0161843,0.263508
374361574,0.0366275,-0.38816,-0.0207648,0.259289
374393598,0.638282,-0.267682,-0.0217768,0.271927
374426404,-0.0812748,-0.555469,-0.0112882,0.267405
374455179,0.315631,0.0512265,-0.02783,0.265828
374487171,0.394119,-0.104081,-0.0208881,0.270664
374520009,-0.80741,0.152402,-0.0127789,0.25402
374552788,0.366512,0.702164,-0.0439838,0.259078
374581616,-0.302378,0.480928,-0.0194321,0.254452
374613595,0.285244,1.1509,-0.0482112,0.242419
374646410,0.548191,0.417707,-0.0344865,0.257214
374678417,-1.16235,0.103491,-0.0101843,0.249574
374711222,0.568798,0.927821,-0.050674,0.231728
374744008,0.624158,0.471791,-0.0411995,0.234306
374776773,0.170183,0.297105,-0.0228982,0.234627
374804788,0.0592272,0.187168,-0.0267143,0.235436
374837613,0.766813,0.103472,-0.0296796,0.232269
374870412,-0.253799,0.410134,-0.0294711,0.221391
374902408,0.88697,-0.0451497,-0.039981,0.21761
374935198,-0.543091,-0.183068,-0.0485638,0.212662
374968012,0.14074,-0.0768276,-0.0611895,0.203948
375000015,0.321002,-0.167636,-0.0735779,0.197045
375032802,-0.307478,-0.310931,-0.0751147,0.201202
375065596,0.188744,-0.180087,-0.085243,0.201919
375097595,0.449715,-0.403952,-0.0885162,0.199347
375126380,0.734025,0.186527,-0.107978,0.202588
375159229,0.235653,-0.0010053,-0.103128,0.204101
375192005,0.581312,-0.207132,-0.100684,0.201326
375224009,-0.287998,-0.041378,-0.0983675,0.198537
375256819,0.926389,-0.320547,-0.111484,0.193637
375289624,-0.46373,-0.0350851,-0.121658,0.19204
375321610,0.441343,-0.0806833,-0.143412,0.197638
375350395,-0.237465,-0.332837,-0.166681,0.183099
375383224,0.691516,-0.288127,-0.170225,0.18814
375415193,-0.429876,-0.437996,-0.18951,0.183554
375447953,0.319995,-0.366046,-0.199079,0.167029
375476793,-0.661432,-0.563095,-0.226669,0.180965
375508815,1.59081,-0.367245,-0.214579,0.165562
375541621,-0.870647,-1.04322,-0.276689,0.167747
375574424,0.615083,-0.524945,-0.250753,0.174681
375607194,0.022451,-0.331591,-0.276663,0.170164
375639268,-0.293678,0.111911,-0.284757,0.156795
375672011,1.25371,-0.542948,-0.299939,0.172591
375700823,1.1761,-0.253422,-0.318569,0.176118
375732791,-0.750292,-0.653301,-0.363155,0.182922
375765579,0.568027,-0.0683464,-0.360056,0.160016
375798383,0.310418,-0.547975,-0.390116,0.168088
375826423,0.203637,-0.617476,-0.40685,0.172581
375859265,-0.440711,-0.940382,-0.452268,0.172724
375891979,0.15668,-0.518387,-0.455513,0.157003
375924769,-0.0358839,-0.83988,-0.490597,0.166384
375952788,-0.407649,-0.407076,-0.511948,0.16909
375985606,0.355379,-0.408763,-0.524803,0.161762
376017596,-0.794711,-0.33975,-0.565346,0.174111
376050399,0.498753,-0.301706,-0.574768,0.148954
376079249,-0.928781,-0.608261,-0.631267,0.14972
376111198,0.0703292,-0.866852,-0.63903,0.166332
376143973,-0.578189,-0.695722,-0.677667,0.15251
376176786,0.185201,-0.569056,-0.679387,0.151267
376205608,-0.70104,-0.639221,-0.724518,0.156677
376237611,0.696505,-0.650248,-0.71276,0.149949
376270411,0.211911,-0.883212,-0.755131,0.159265
376299231,0.455311,-1.20601,-0.772794,0.155615
376331201,-0.443797,-0.586608,-0.785398,0.157412
376364001,0.683203,-0.731679,-0.785398,0.162068
376396795,-1.10109,-0.80216,-0.785398,0.159663
376424798,-0.378938,-0.882955,-0.785398,0.165868
376457618,-0.247341,0.145759,-0.785398,0.15008
376490398,0.356295,-0.240162,-0.785398,0.165929
376523219,-0.879296,-0.354664,-0.785398,0.161026
376551221,0.659656,-0.244935,-0.785398,0.157009
376584018,-1.30847,-0.675618,-0.785398,0.176069
376615973,-0.27592,-0.44811,-0.785398,0.164693
376648795,0.763401,-0.657352,-0.785398,0.165215
376681604,-0.439292,-0.330322,-0.785398,0.167832
376713611,0.583052,0.0131557,-0.785398,0.167939
376746382,-0.08645,-0.867988,-0.785398,0.182557
376775183,0.41758,-0.271159,-0.785398,0.17057
376807991,0.0270413,-0.240273,-0.785398,0.18399
376839971,-0.177826,0.092363,-0.785398,0.180325
376872807,0.378576,-0.381808,-0.785398,0.187737
376901612,-0.85357,-0.512266,-0.785398,0.176729
376933611,0.353572,-0.0113193,-0.785398,0.182369
376966399,0.1065,-0.156243,-0.785398,0.188618
376999236,-0.65256,-1.12146,-0.785398,0.179063
377031228,-1.30163,-0.974115,-0.785398,0.194366
377063981,-0.895667,-0.430889,-0.785398,0.174173
377096774,-0.186622,-0.332509,-0.785398,0.176921
377125608,-1.0041,-0.443575,-0.785398,0.185007
377157583,0.703399,-0.310769,-0.785398,0.160015
377190413,0.259373,-0.733875,-0.785398,0.161071
377223215,-0.933649,-0.761618,-0.785398,0.162926
377255226,0.447271,-0.312713,-0.785398,0.142343
377288016,-0.167873,-0.878656,-0.785398,0.153217
377320798,-0.650798,-0.183273,-0.785398,0.144355
377352795,0.257626,-0.0665764,-0.785398,0.152805
377381591,-0.609086,0.31167,-0.785398,0.159298
377414419,0.74394,-0.837338,-0.785398,0.15311
377446396,-0.681836,-0.263121,-0.785398,0.152422
377475167,-0.803346,-0.795149,-0.785398,0.158006
377508017,0.440299,-0.106034,-0.785398,0.155854
377540013,0.333841,-0.247264,-0.785398,0.15616
377572813,-0.931354,-0.545459,-0.785398,0.156799
377601617,-0.0263623,-0.982976,-0.785398,0.162274
377633590,-1.79581,-0.882585,-0.785398,0.170589
377666414,0.427894,-0.872774,-0.785398,0.160415
377699256,-0.645506,-0.643132,-0.785398,0.158959
377727185,0.418116,-0.847874,-0.785398,0.171899
377760008,-0.753169,-1.03934,-0.785398,0.15346
377792804,-0.453594,-0.91448,-0.785398,0.162505
377821612,-0.872227,-0.650267,-0.785398,0.147023
377853605,0.632741,-0.918587,-0.785398,0.153886
377886411,-1.0457,-0.596399,-0.785398,0.143534
377919262,0.362145,-0.291445,-0.785398,0.156306
377951168,-0.287971,-0.602092,-0.785398,0.156692
377984015,-0.901191,-0.0553284,-0.785398,0.150777
378016790,0.310112,-1.14476,-0.785398,0.145986
378048798,-0.442239,-0.0927215,-0.785398,0.141186
378081595,0.716566,-0.460154,-0.785398,0.164494
378114377,-1.70041,-0.931271,-0.785398,0.181325
378147169,-0.184718,-0.697981,-0.785398,0.189154
378175173,-1.33914,-0.536339,-0.785398,0.18323
378207990,0.0924068,-0.102441,-0.785398,0.181992
378240811,0.392856,-0.593036,-0.785398,0.180966
378272807,-1.36111,-0.492724,-0.785398,0.187284
378301621,-0.463144,-0.705612,-0.785398,0.193401
378334394,-0.542222,-0.753672,-0.785398,0.193239
378366416,-1.16207,-0.220984,-0.785398,0.193371
378399261,0.175342,-0.479753,-0.785398,0.171025
378427970,-0.267509,-0.844346,-0.785398,0.16753
378459998,-0.573282,-0.691762,-0.785398,0.18001
378492790,-0.0816042,-0.579204,-0.785398,0.195924
378521601,-1.35029,-0.843596,-0.785398,0.198476
378553610,0.131621,-0.41765,-0.785398,0.18334
378586411,0.387945,-0.522507,-0.785398,0.192917
378619268,-0.596436,-1.08542,-0.785398,0.191739
378651171,-0.870273,-0.755735,-0.785398,0.204108
378680010,0.148258,-0.451755,-0.785398,0.196274
378712804,-0.130203,-0.642418,-0.785398,0.203636
378745617,-0.772277,-0.561024,-0.785398,0.20824
378773564,0.535544,-0.358936,-0.785398,0.184368
378806373,-1.05976,-0.747427,-0.76586,0.192569
378839266,-0.325394,-0.577599,-0.721834,0.175728
378871217,0.593655,-0.422371,-0.677139,0.173236
378900019,-0.444787,-0.0377043,-0.647984,0.163541
378932811,-0.00471743,0.0957837,-0.611625,0.176665
378964820,0.385586,-0.740928,-0.563223,0.170869
378997611,-0.716075,-0.745994,-0.548212,0.173374
379026407,0.544231,-0.606319,-0.503367,0.175277
379058395,-0.68366,-0.402405,-0.493657,0.179325
379091155,0.943562,-0.301504,-0.45483,0.163694
379119974,-0.40059,-0.504674,-0.445502,0.165399
379151979,0.304812,-0.470065,-0.41617,0.172242
379184811,0.740824,0.139141,-0.402469,0.160133
379217611,-0.638797,-0.331592,-0.379035,0.166837
379249612,0.276214,-0.606336,-0.35084,0.173061
379278412,-0.723383,-0.628649,-0.342356,0.17482
379311218,0.179469,-0.368032,-0.311785,0.160763
379343196,-1.25917,-0.444625,-0.303626,0.17454
379371999,0.372688,-0.601617,-0.275239,0.174398
379404779,-0.852489,-1.12215,-0.293058,0.163123
379437571,0.588484,-0.901746,-0.254324,0.163639
379469614,0.540084,-0.776972,-0.243181,0.17154
379498425,0.859981,-0.295548,-0.244713,0.173485
379531212,-0.160833,-0.416428,-0.236994,0.173365
379563225,0.463529,-0.208454,-0.234104,0.187955
379596017,0.00627361,-0.768939,-0.229212,0.175197
379624816,0.797334,-0.524197,-0.226589,0.177727
379656797,-0.650261,-0.43937,-0.240757,0.192557
379689592,0.787617,0.0132113,-0.243851,0.173012
379718380,-0.542901,-0.282004,-0.237266,0.166597
379750403,-0.210334,-0.381386,-0.242712,0.175234
379783217,0.945952,-0.834947,-0.211051,0.169981
379816022,-1.41086,-0.697318,-0.246303,0.183853
379848812,-0.109513,-0.488573,-0.238489,0.172671
379880810,-0.44727,-0.782474,-0.245087,0.185812
379913608,-0.983269,-0.803286,-0.254157,0.169549
379945604,0.337848,-0.554828,-0.233165,0.191855
379974407,-0.468401,-0.981744,-0.241378,0.204778
380007194,-0.690205,-0.686201,-0.246232,0.188261
380040003,0.347172,-0.831164,-0.221321,0.195239
380071980,-0.539587,-0.904224,-0.231774,0.209993
380104820,-1.06208,-0.863568,-0.236928,0.203732
380137600,0.458733,-0.915103,-0.201024,0.185705
380169579,-0.2166,-0.950973,-0.206069,0.209183
380202419,-0.0938937,-0.835844,-0.192533,0.196073
380235194,-0.660641,-0.874275,-0.205582,0.19542
380267177,0.269855,-0.736274,-0.180875,0.205784
380296024,-0.795323,-0.178539,-0.17648,0.185392
380328819,0.293528,-0.193101,-0.163226,0.179272
380361593,0.0899944,-0.694504,-0.148954,0.187953
380393579,-0.38277,-0.484829,-0.153022,0.188104
380422374,0.535562,-0.399978,-0.14241,0.189385
380454417,-0.981958,-0.655728,-0.156876,0.201605
380487160,-0.116166,-0.276815,-0.152154,0.182411
380520021,0.281192,-0.248927,-0.154647,0.192111
380552792,-0.343991,-0.84862,-0.161225,0.201977
380585595,-0.353617,-1.018,-0.17053,0.193973
380617608,-0.0889655,-0.620427,-0.172594,0.186044
380646428,-0.751597,-0.246986,-0.176374,0.177293
380678417,0.56773,0.173915,-0.193558,0.181331
380711198,0.0258763,-0.309165,-0.188991,0.180584
380743977,-0.244279,0.43604,-0.181213,0.179626
380772005,0.249593,0.536147,-0.198979,0.171617
380804804,-0.336297,0.83738,-0.180024,0.172251
380837616,0.391557,0.345734,-0.193897,0.179546
380866395,-0.0136641,0.431499,-0.181979,0.182871
380898420,0.957662,0.764554,-0.196438,0.174385
380931201,-0.42149,-0.135453,-0.174427,0.18472
380963996,0.496713,0.157736,-0.177885,0.161162
380996026,0.288007,-0.463801,-0.174011,0.175376
381024805,0.539864,-0.643942,-0.174518,0.165257
381057617,0.674585,-0.543449,-0.175424,0.170111
381089590,-0.354639,-0.57054,-0.193967,0.175201
381118359,-0.263431,-1.0708,-0.186411,0.166084
381151226,-0.184885,-1.19371,-0.179548,0.173128
381183225,0.126668,-1.15706,-0.180456,0.164347
381215994,0.966053,-1.17112,-0.145605,0.170127
381244786,-0.284691,-1.05377,-0.177011,0.170262
381276810,-0.0231656,-1.4565,-0.161391,0.18108
381309614,0.589078,-1.67659,-0.111389,0.17372
381342400,-1.06347,-1.58284,-0.166413,0.191835
381370378,0.18382,-1.66963,-0.1153,0.204325
381403191,-0.808935,-1.98735,-0.151887,0.208706
381436019,-0.440142,-1.6135,-0.132941,0.210668
381467973,-0.762085,-1.2533,-0.141798,0.20755
381496788,0.0626752,-0.964582,-0.119314,0.232522
381529614,0.0642059,-0.946087,-0.124615,0.236825
381562412,-0.0520152,-1.07951,-0.102074,0.2396
381594418,-0.134969,-0.522259,-0.0952339,0.238244
381623221,-0.367938,-0.919151,-0.0960435,0.239793
381655214,-0.183627,-1.09467,-0.0650727,0.235114
381687997,-0.380129,-0.756613,-0.0696869,0.232598
381720820,0.0892581,-0.279395,-0.0415506,0.240016
381753616,0.383215,-0.0832819,-0.0193035,0.226386
381785602,0.61213,-0.205248,-0.0133572,0.218757
381818417,-0.0785783,-0.29059,0.0105942,0.21506
381847199,-0.104074,0.0542099,0.0193105,0.213094
381880019,0.886539,-0.23153,0.0268816,0.205091
381912012,-0.617192,-0.313561,0.0568063,0.199218
381944767,0.811835,0.017427,0.077,0.18284
381972791,0.272201,-0.0909894,0.0801279,0.183374
382005616,0.270115,-0.0602447,0.101941,0.180284
382038406,0.0528946,-0.476997,0.0987115,0.168366
382070404,0.90159,-0.594316,0.125127,0.176394
382099210,0.0674506,-0.380398,0.136515,0.178409
382132013,-0.174414,0.0404374,0.0881514,0.167255
382164806,0.386307,-0.377015,0.123647,0.174769
382196788,-0.197711,0.0359735,0.119043,0.166644
382225606,0.406512,-0.70065,0.134465,0.172099
382258404,0.0235468,-0.258736,0.125961,0.179727
382290411,-0.407835,-0.840801,0.111179,0.181847
382319238,0.714397,0.0234831,0.0545746,0.194409
382352001,1.79855,-0.51728,0.785398,0.200207
382383992,1.6893,-0.871893,0.785398,0.205639
382416804,1.45914,-0.193843,0.785398,0.212555
382449571,0.447931,0.430562,0.785398,0.208113
382481612,0.796523,-0.572223,0.785398,0.222238
382514407,0.587356,0.410483,0.785398,0.215746
382543223,0.19063,0.423277,0.785398,0.21578
382575228,-0.0864412,-0.185755,0.785398,0.211692
382608025,-0.335247,0.807292,0.785398,0.214908
382640809,0.205512,-0.20582,0.785398,0.217176
382669604,-0.340481,0.342812,0.785398,0.214441
382701595,-0.630574,0.157177,0.785398,0.217478
382734420,-0.230717,-0.0990873,0.785398,0.228694
382767183,-1.31627,0.354276,0.785398,0.21988
382795184,-0.453329,-0.499067,0.785398,0.222304
382827994,-0.408853,0.259113,0.785398,0.226151
382860808,0.36692,-0.668883,0.785398,0.222643
382892811,-0.0932826,-0.0686034,0.785398,0.218066
382921615,-0.425807,0.140788,0.785398,0.224505
382954428,0.534126,-0.332914,0.785398,0.229423
382986393,-0.305915,-0.300219,0.785398,0.230875
383019261,-0.663358,0.279837,0.785398,0.12
383048000,-0.576115,0.32205,0.785398,0.12
383079991,-0.474774,0.322181,0.785398,0.12
383112822,-0.364926,0.241732,0.785398,0.12
383141598,-0.235001,0.130356,0.785398,0.12
383174425,-0.0998192,-0.0172896,0.785398,0.12
383206417,1.03191,-0.829432,0.785398,0.280529
383239263,0.664722,-0.378703,0.785398,0.293712
383267221,0.441104,-0.193203,0.785398,0.298757
383299997,0.946284,-0.780956,0.785398,0.294429
383332796,-0.0281205,-0.111632,0.785398,0.300557
383365595,0.960706,-0.0324958,0.785398,0.294326
383393604,0.469521,-0.265661,0.785398,0.287811
383426375,-0.231994,-0.337139,0.785398,0.28236
383459257,0.317919,0.30505,0.785398,0.270813
383491214,0.55067,0.268262,0.785398,0.265359
383523980,0.580009,-0.212423,0.785398,0.260374
383556802,-0.648489,-0.25246,0.785398,0.251066
383589612,0.610172,0.429812,0.785398,0.246139
383617609,-0.134512,0.19321,0.785398,0.234498
383650419,0.151561,0.404046,0.785398,0.232655
383683194,0.459389,-0.262421,0.785398,0.22938
383715180,-0.693171,0.176843,0.785398,0.227215
383743981,-0.975498,-0.12477,0.785398,0.233082
383775967,0.242008,-0.0497433,0.785398,0.229541
383808829,-0.248411,-0.145359,0.785398,0.222397
383841623,0.00590971,0.380375,0.785398,0.226384
383870397,0.420576,0.0793526,0.785398,0.223299
383902411,-0.580589,0.065649,0.785398,0.220306
383935208,0.663929,-0.0263509,0.785398,0.218782
383964018,0.189595,0.402525,0.785398,0.224216
383996011,0.497255,-0.508234,0.785398,0.227638
384028784,-0.552487,0.114365,0.785398,0.228016
384061621,0.704872,-0.345956,0.785398,0.233408
384093615,-1.16807,-0.0983577,0.785398,0.228783
384122419,-0.330521,0.708257,0.785398,0.12
384155175,-0.285473,0.708589,0.785398,0.12
384187948,-0.218834,0.649936,0.785398,0.12
384216030,-0.144198,0.503205,0.785398,0.12
384248812,-0.0839577,0.299003,0.785398,0.12
384281622,-0.0414887,0.0932018,0.785398,0.12
384313611,0.00346366,-0.0947391,0.785398,0.12
384342380,0.0178735,-0.19646,0.785398,0.12
384374396,-0.448489,-1.38772,0.785398,0.312461
384407180,0.55106,-1.45909,0.785398,0.32357
384439956,0.0371665,-1.10776,0.785398,0.329953
384467969,0.01206,-0.656687,0.785398,0.330291
384501595,0.304865,-0.694129,0.785398,0.313832
384533608,-0.277324,-0.811762,0.785398,0.306523
384561608,-0.780224,-0.742946,0.785398,0.290969
384594413,-0.097001,-0.207128,0.785398,0.284874
384627219,-0.804034,-0.219736,0.754105,0.280302
384659978,-0.210381,-0.0756044,0.675865,0.261188
384692005,0.157308,0.0193423,0.604597,0.257145
384720795,-0.194565,-0.180835,0.545437,0.249115
384753617,-0.112223,-0.625741,0.459196,0.252727
384785573,0.114484,-0.778486,0.391757,0.247453
384814416,-0.817496,-1.36069,0.292206,0.252271
384847223,-0.0303122,-1.11214,0.26942,0.246555
384880025,-0.0435073,-1.19842,0.21856,0.251288
384911995,-0.81888,-1.14038,0.157606,0.256658
384940785,0.0302519,-1.06606,0.144104,0.259965
384972806,-0.0512756,-0.886214,0.107946,0.261072
385005597,0.0826973,-0.341808,0.0833383,0.250327
385038400,-0.168601,-0.0071658,0.0641248,0.2647
385070380,-0.103051,0.603495,0.0481168,0.256133
385103169,-0.0843043,0.572219,0.020044,0.255806
385136014,0.273966,0.501792,-0.00201214,0.257293
385164783,-0.803006,0.305124,0.00111233,0.262492
385196813,0.0618732,0.929117,-0.0154937,0.24812
385229600,0.0722174,0.819611,-0.0260871,0.251766
385262420,0.317474,0.844667,-0.0443219,0.261108
385290423,-0.475539,0.429677,-0.0344751,0.259305
385323221,0.32418,0.827535,-0.0567752,0.260073
385355988,0.354509,0.507659,-0.0655266,0.258925
385387991,0.168159,0.408321,-0.0687397,0.258893
385416793,-0.0528946,0.00935913,-0.0627531,0.25969
385449609,-0.112938,0.0544584,-0.0645703,0.256671
385481609,-0.279982,-0.0893898,-0.0736808,0.254852
385514414,0.0177441,0.0159687,-0.0753792,0.247597
385543199,0.404958,-0.0477967,-0.0749338,0.241869
385575223,-0.356019,-0.296565,-0.0824029,0.244934
385608009,-0.365342,-0.288264,-0.093934,0.234703
385640770,-0.413679,0.0105911,-0.0930972,0.2256
385673591,0.16625,-0.0347148,-0.100929,0.232606
385705594,0.322428,0.212707,-0.0991371,0.231636
385738422,0.495273,-0.286055,-0.0955053,0.223872
385767216,0.559234,0.196827,-0.101202,0.219284
385799228,0.0227198,-0.0832208,-0.101655,0.221801
385832014,0.453068,-0.280815,-0.101402,0.216684
385864777,-0.315817,-0.0929476,-0.102248,0.216016
385892789,0.359014,0.146528,-0.11512,0.210263
385925616,0.192686,-0.476504,-0.106329,0.205517
385958410,-0.523453,-0.352457,-0.110449,0.200931
385990416,0.24235,-0.163485,-0.106843,0.204088
386019261,0.196641,-0.395378,-0.110391,0.20427
386051970,-1.13995,-0.255643,-0.118138,0.202642
386083993,0.359698,-0.181122,-0.12396,0.197031
386116793,0.00392316,-0.391821,-0.129682,0.203141
386145611,-0.28287,0.238989,-0.126951,0.193087
386178419,-0.139726,-0.509088,-0.13474,0.197591
386210395,-0.93719,-0.827606,-0.154226,0.207706
386239229,0.465221,-0.246827,-0.130515,0.188331
386271960,0.112036,-0.124764,-0.134386,0.194756
386304010,-0.286242,-0.233535,-0.140364,0.1962
386336795,0.501825,-0.191311,-0.150616,0.190717
386365577,-0.765587,0.339206,-0.147647,0.190576
386397590,0.446282,-0.136695,-0.160878,0.190782
386430416,-0.0969258,-0.575572,-0.162907,0.197105
386463180,-1.40072,-0.725311,-0.192365,0.190524
386491169,-0.582345,-0.503163,-0.192667,0.189357
386523998,-0.863687,-0.268242,-0.203497,0.190904
386556809,-0.046702,-0.254101,-0.211523,0.187683
386588810,-0.262279,-0.827467,-0.227237,0.181942
386617616,-0.147998,-0.308324,-0.237869,0.177252
386650402,-0.327247,-0.373297,-0.249799,0.183411
386682376,-0.338186,-0.42433,-0.257302,0.178586
386715213,-0.317274,-0.00311424,-0.267538,0.173871
386743967,-0.950337,-0.697358,-0.291889,0.181162
386775973,0.114371,-0.142736,-0.28743,0.181158
386808806,0.890995,-0.568391,-0.289572,0.173132
386837595,0.765589,-0.381914,-0.30024,0.184909
386870404,-0.0299545,-0.602228,-0.315677,0.180907
386902411,-0.636458,-0.333217,-0.324587,0.191604
386935226,0.716242,-0.19174,-0.323527,0.191944
386968001,-0.187372,-0.362511,-0.318889,0.192799
386999979,-0.711423,-0.278302,-0.325039,0.186248
387032803,0.0566355,-0.278689,-0.324096,0.198852
387061618,-0.69739,-0.237091,-0.324055,0.199625
387093564,-0.0205948,0.228018,-0.333119,0.199471
387126412,0.24206,0.147196,-0.334169,0.199542
387159274,-0.0862747,-0.322342,-0.315869,0.195531
387188008,0.330483,0.137727,-0.315603,0.199653
387220019,0.350246,-0.189287,-0.294541,0.2044
387252797,0.563305,-0.229435,-0.276045,0.206552
387281592,-0.125344,-0.0326996,-0.268179,0.200253
387313612,0.963412,-0.537739,-0.250942,0.201944
387342396,0.4856,-0.235893,-0.253146,0.212805
387374413,0.0805046,-0.448261,-0.25212,0.212347
387407151,-0.456283,-0.445082,-0.256258,0.21735
387436026,0.721872,-0.364855,-0.253824,0.216203
387468011,-0.783924,-0.574385,-0.266424,0.222037
387500817,-0.33033,0.158993,-0.278105,0.192979
387533609,0.64891,0.188781,-0.295902,0.198165
387561593,-0.477648,-0.416496,-0.280235,0.191566
387594414,-0.274344,-0.216647,-0.285014,0.196019
387627219,0.30329,-0.00616424,-0.293465,0.20717
387660003,-0.12584,-0.465209,-0.291453,0.201936
387688005,0.134183,-0.408094,-0.296869,0.200972
387720799,0.185297,-0.240092,-0.30604,0.197529
387753577,0.121773,-0.393185,-0.302715,0.194836
387785608,-0.0251926,-0.179356,-0.310222,0.194266
387814424,-0.444887,-0.785221,-0.311014,0.18611
387847214,-1.18949,-0.731888,-0.320646,0.189001
387879269,0.431552,-0.106092,-0.311362,0.192132
387912026,-0.0720796,-0.40754,-0.30828,0.191352
387940808,-0.511841,-0.313326,-0.309291,0.188332
387972814,0.406428,-0.776152,-0.291733,0.190654
388005594,-0.701566,-0.402281,-0.310213,0.186275
388034403,0.439665,0.0440601,-0.325676,0.180453
388066402,-0.74682,-0.466173,-0.318946,0.19351
388099224,-0.0405983,-0.207376,-0.318291,0.186928
388132012,0.675291,-0.0987812,-0.316538,0.183302
388160782,-0.130404,0.156707,-0.31946,0.174806
388192796,1.14904,-0.296352,-0.307266,0.173733
388225607,-0.721284,-0.552433,-0.317105,0.19196
388258410,-0.216938,-0.010266,-0.322437,0.172769
388290404,0.8764,-0.0704585,-0.3367,0.184173
388323193,-0.456136,-0.298041,-0.344432,0.197815
388355980,0.236711,0.363638,-0.366795,0.173011
388388010,0.30212,-0.0962579,-0.372976,0.189886
388416811,0.42345,0.080556,-0.392287,0.184462
388449596,0.240176,-0.32547,-0.386001,0.198904
388482412,-0.376334,-0.285207,-0.396655,0.188464
388510412,0.0185178,-0.00665852,-0.413998,0.181162
388543214,0.47388,-0.464547,-0.399559,0.181779
388575228,-0.311414,-0.0232042,-0.414161,0.189386
388607995,0.245443,-0.187203,-0.422528,0.191667
388636821,-1.27128,-0.671207,-0.441429,0.195489
388668811,0.465266,-0.746963,-0.413279,0.190266
388701604,0.395229,-0.632426,-0.417691,0.187178
388734387,-1.20647,-0.814427,-0.442682,0.198743
388762419,0.0742983,-0.468868,-0.420327,0.194079
388795215,-0.824495,-0.555589,-0.43037,0.191881
388827982,-0.943238,-0.178729,-0.428899,0.182776
388860788,0.0977489,-0.287964,-0.429033,0.179434
388888789,-0.638219,-0.393069,-0.426001,0.175363
388921598,-0.379726,-0.0611267,-0.421382,0.187864
388954403,0.627927,-0.262903,-0.41431,0.181711
388986414,-0.517589,-0.941724,-0.425203,0.185444
389015193,-0.0889965,-0.450493,-0.419472,0.185587
389048017,0.215987,-0.277544,-0.418467,0.184821
389079982,-0.267602,-0.109148,-0.409956,0.195627
389112787,0.161772,-0.22771,-0.409574,0.189093
389141618,-0.247528,-0.415847,-0.404622,0.209848
389174378,0.403891,0.0754613,-0.390737,0.191902
389206416,1.03189,0.209321,-0.387833,0.194194
389235161,-0.261379,-0.127467,-0.36601,0.200607
389267222,0.335337,-0.128896,-0.359094,0.194396
389300014,-0.0296541,-0.80689,-0.344832,0.189793
389332779,-0.350647,-0.248692,-0.34224,0.19716
389361613,0.214181,-0.578245,-0.329918,0.191813
389393612,-0.731677,-0.496077,-0.332561,0.199101
389426423,-0.533031,-0.709863,-0.332025,0.183167
389458420,0.0423456,-0.429014,-0.316814,0.180154
389487167,-0.823103,-0.471121,-0.31363,0.184644
389520009,0.11784,-0.258338,-0.294592,0.186133
389552794,0.535509,-0.523748,-0.281202,0.193851
389584822,-0.490446,-0.768936,-0.289481,0.189229
389613615,0.0661873,-0.11174,-0.280723,0.181591
389646402,0.346337,-0.352275,-0.27501,0.177975
389678398,0.431853,0.172901,-0.271914,0.181144
389711173,0.328354,-0.341323,-0.272353,0.190745
389739977,0.287022,0.159844,-0.27579,0.194219
389771972,0.608799,-0.212533,-0.269483,0.187313
389804795,-0.184091,0.00196706,-0.266366,0.187624
389837607,-0.365056,0.0292324,-0.271076,0.191022
389870411,0.414227,-0.207699,-0.259474,0.194872
389902418,-0.126013,0.0969263,-0.254838,0.195048
389935172,-0.500538,-0.0254469,-0.25362,0.192572
389963218,-0.149391,-0.581354,-0.251556,0.197824
389995988,-0.0629523,-0.248887,-0.234252,0.198446
390028796,0.498208,0.134458,-0.231373,0.201853
390057618,-0.409244,0.0154249,-0.222978,0.195565
390089567,0.270217,-0.372741,-0.223441,0.203667
390122404,0.387787,-0.0649206,-0.217533,0.193123
390155213,-0.183872,-0.28681,-0.209373,0.195761
390187175,0.411444,-0.163427,-0.206255,0.202736
390216015,-0.72695,-0.561314,-0.207145,0.19512
390248814,-0.25004,-0.0339167,-0.204342,0.196738
390281591,1.08621,-0.257675,-0.208737,0.191816
390309601,0.0508844,-0.427801,-0.204417,0.200754
390342396,0.00369523,-0.433074,-0.216793,0.196346
390374386,-0.549406,-0.392104,-0.229569,0.200996
390407173,-0.2439,0.139902,-0.235789,0.202756
390435994,-0.672752,-0.581696,-0.249519,0.201205
390468807,-0.532902,-0.0737094,-0.260554,0.195797
390501608,0.937583,0.159018,-0.290092,0.199654
390533594,-0.10406,-0.326555,-0.289838,0.203234
390561612,-0.344893,-0.171786,-0.306507,0.194629
390594405,0.343817,-0.170944,-0.310439,0.200328
390627199,-0.262066,-0.542167,-0.325725,0.212176
390655201,0.20761,-0.273151,-0.333791,0.205244
390687987,-0.794059,-0.132796,-0.332958,0.200106
390720813,-0.656311,-0.48505,-0.333232,0.199904
390753591,-0.61587,0.107228,-0.319085,0.203575
390785624,0.29107,-0.0161527,-0.31772,0.200665
390814413,0.395651,-0.416207,-0.309022,0.214702
390847224,-0.422876,0.0485987,-0.308797,0.202897
390879264,0.878177,-0.329294,-0.308917,0.196763
390907999,0.121145,-0.0246872,-0.308795,0.205204
390940812,0.272819,0.251284,-0.308743,0.207341
390972821,0.213861,-0.420514,-0.304096,0.200286
391005573,-0.364372,-0.292428,-0.298224,0.202325
391034378,0.422322,0.0101805,-0.295148,0.207195
391066415,0.366452,-0.290152,-0.29131,0.208441
391099236,-0.112029,-0.161278,-0.280918,0.212826
391132017,-0.370691,-0.00643226,-0.282791,0.213486
391164800,0.307233,-0.0296873,-0.279925,0.221707
391196810,-0.259952,-0.165788,-0.275688,0.222298
391229607,-0.120678,-0.497245,-0.270809,0.219328
391262415,-0.338173,0.0331342,-0.259549,0.219549
391294416,0.297727,0.0678783,-0.252864,0.218685
391327191,0.377226,-0.334089,-0.246414,0.227031
391355974,-0.514782,-0.213083,-0.23408,0.229457
391387994,0.568133,-0.0360107,-0.224085,0.226252
391420800,0.616015,-0.14437,-0.211998,0.224415
391453617,0.259676,-0.681714,-0.202143,0.231103
391482406,0.128786,-0.0305799,-0.19424,0.225704
391514423,0.553391,0.0811256,-0.197502,0.229044
391547225,0.127248,-0.424081,-0.17986,0.228846
391579274,-0.534667,-0.137955,-0.174221,0.223995
391608018,0.275605,-0.0732629,-0.16747,0.230409
391640807,-0.150437,-0.404549,-0.167752,0.238774
391673567,-0.63212,-0.390864,-0.16461,0.231654
391705594,0.274685,-0.226514,-0.160239,0.222974
391734359,-0.0212352,-0.514272,-0.157352,0.246783
391766414,-1.00015,-0.408284,-0.154543,0.239853
391799271,0.222427,-0.132499,-0.141297,0.22423
391832018,-0.0252714,-0.0409655,-0.136598,0.225232
391860815,-0.961897,-0.493922,-0.142149,0.22721
391892799,0.150988,-0.0666704,-0.124667,0.221262
391925601,0.577589,0.12111,-0.12451,0.222599
391954382,-0.269573,-0.243734,-0.119168,0.218391
391986407,0.153853,0.0466565,-0.109581,0.210735
392019252,0.642591,0.0992737,-0.107648,0.216475
392052001,0.120008,-0.161165,-0.103456,0.214497
392083975,-0.0392574,0.124974,-0.0915062,0.2107
392112814,0.540008,-0.395055,-0.0937453,0.201967
392145622,-0.166622,-0.188648,-0.0866833,0.20089
392178416,-0.244707,0.0524475,-0.079866,0.19518
392206397,0.047766,-0.788178,-0.0772592,0.198848
392239265,0.128945,-0.127892,-0.0713706,0.196167
392271215,0.591967,-0.512422,-0.0686022,0.197673
392304001,-0.453018,-0.677835,-0.0808163,0.208264
392332820,1.0096,-0.0885123,-0.0679631,0.195307
392365608,0.359691,-0.112827,-0.0635999,0.201013
392397619,-0.0863013,-0.0810663,-0.0597175,0.202359
392430409,0.46819,-0.296403,-0.0648146,0.20371
392459269,-0.352177,-0.107642,-0.0644596,0.199512
392491221,1.12712,-0.0849769,-0.0737724,0.192698
392524015,-0.357838,-0.200671,-0.0758228,0.201029
392556784,-0.229321,-0.207522,-0.0793524,0.204446
392584780,-0.0616954,-0.441505,-0.0846569,0.203145
392617591,0.317334,0.105582,-0.0937029,0.205033
392650398,0.234023,-0.240055,-0.105712,0.204651
392682398,0.266261,-0.388718,-0.111943,0.198681
392711173,0.630381,-0.121836,-0.116987,0.200991
392744018,0.0552512,-0.38533,-0.130094,0.197387
392775957,-0.43905,-0.190384,-0.132096,0.208452
392808791,0.652446,0.186854,-0.138673,0.205336
392837596,0.426008,-0.0906822,-0.134598,0.211043
392869610,0.193097,0.0245336,-0.129732,0.210584
392902409,0.419462,-0.158804,-0.124965,0.213919
392931221,-0.580078,-0.205556,-0.123149,0.204881
392963217,0.0563016,0.100117,-0.126606,0.213337
392995993,0.513933,-0.270124,-0.120823,0.219596
393028821,-0.750312,-0.162011,-0.124134,0.216632
393056791,-0.416431,-0.232299,-0.127221,0.224482
393089555,0.175043,-0.545059,-0.11733,0.20516
393122417,-0.266327,-0.16462,-0.123253,0.215295
393155168,-0.148696,-0.24399,-0.12802,0.214983
393183183,0.213113,-0.77191,-0.124215,0.210339
393216011,-0.184632,-0.0968528,-0.121467,0.207453
393248802,0.0880883,-0.074354,-0.120929,0.207583
393281590,0.733847,-0.355827,-0.108693,0.214378
393313589,0.63048,-0.505041,-0.097343,0.214937
393346387,-0.352677,-0.257681,-0.0939173,0.216802
393378399,0.236502,-0.128106,-0.0928982,0.210944
393407186,-0.143511,-0.365211,-0.0908013,0.214536
393440012,0.092329,0.269584,-0.0875131,0.207741
393472809,0.36867,-0.282732,-0.0857425,0.211332
393504804,0.127652,-0.154628,-0.0875607,0.21614
393533609,0.394751,-0.173687,-0.0865489,0.211638
393565605,-0.610722,-0.571355,-0.0971336,0.210823
393598416,0.0694714,-0.124391,-0.0862033,0.21704
393631197,0.0729049,0.0416724,-0.0869795,0.215852
393659243,-0.230892,-0.606397,-0.0973389,0.215524
393691998,-0.407445,-0.208444,-0.0921654,0.207483
393724820,0.225191,0.0545357,-0.0878931,0.202609
393753611,0.0110572,-0.140165,-0.0822681,0.200929
393785612,-0.0448725,-0.192858,-0.0843235,0.197388
393818395,0.460957,-0.703601,-0.083808,0.19626
393851212,-0.295601,-0.328699,-0.0897561,0.197705
393883174,-0.231775,-0.0722807,-0.0898483,0.20009
393911972,-0.887696,-0.421438,-0.0962557,0.201136
393944795,-0.197552,-0.0173586,-0.0876826,0.196975
393976795,0.811327,0.0596186,-0.0948765,0.192866
394005598,-0.138598,0.368521,-0.0851605,0.196855
394038378,0.569566,-0.358259,-0.0986411,0.191068
394071216,-0.308398,-0.151845,-0.102268,0.195705
394103225,0.268407,0.319476,-0.106254,0.205237
394132000,0.0475553,-0.166597,-0.109514,0.21435
394164811,-0.103394,-0.09336,-0.110884,0.216779
394196814,0.622545,-0.00718067,-0.116102,0.216218
394229612,0.630869,-0.24012,-0.116042,0.2192
394257616,1.04987,0.0395475,-0.122422,0.215076
394290397,-0.673757,-0.0353166,-0.121865,0.219698
394323194,-0.0299434,0.101199,-0.121558,0.215569
394351199,0.559475,-0.31931,-0.117076,0.22758
394383974,-0.409738,-0.324968,-0.116683,0.227686
394416805,-0.0673314,-0.228395,-0.107913,0.219964
394449596,0.223714,0.130445,-0.104506,0.217167
394481625,0.604158,-0.194989,-0.100273,0.218604
394510412,0.50835,-0.00614467,-0.0955517,0.217171
394543215,0.168041,-0.35344,-0.0967834,0.214336
394575215,0.159391,-0.477961,-0.0957945,0.216139
394604003,0.790854,-0.0177046,-0.0897908,0.213522
394636796,0.179227,-0.552383,-0.090294,0.21609
394668798,-0.36177,-0.456535,-0.092761,0.222225
394701601,0.355214,-0.0033533,-0.089881,0.223641
394730376,-0.0334649,-0.111644,-0.0808259,0.215317
394762378,0.190275,-0.0703619,-0.0848022,0.217686
394795215,0.356853,-0.175198,-0.0889191,0.220978
394828022,0.41514,-0.468489,-0.0872894,0.219034
394860794,-0.576352,-0.131258,-0.09377,0.20717
394892812,0.592452,-0.302333,-0.0934469,0.202917
394925605,-0.0009105,-0.281587,-0.0949822,0.199273
394954404,0.321032,0.0572254,-0.0946902,0.204003
394986396,0.445634,-0.345287,-0.0893631,0.203124
395019224,-0.299563,-0.300547,-0.0868881,0.198743
395051970,0.0875438,-0.35313,-0.0864612,0.195935
395079969,0.0772322,-0.31604,-0.0851044,0.199738
395112818,-0.603411,0.043744,-0.0873138,0.189401
395145607,0.801243,-0.355322,-0.0956926,0.191359
395177612,-0.251226,-0.645166,-0.114143,0.201288
395206415,0.694096,-0.262965,-0.123366,0.190781
395239263,-1.05042,-0.349434,-0.141977,0.196043
395271203,0.530094,0.0880338,-0.158527,0.178831
395304002,0.614554,-0.352272,-0.160585,0.178621
395332781,-0.104156,0.302712,-0.168488,0.179247
395365574,0.243892,-0.288873,-0.187911,0.178625
395397620,-0.274634,-0.124187,-0.200452,0.186452
395426421,0.751944,-0.0161911,-0.217177,0.190672
395459271,-0.560634,-0.0210613,-0.225388,0.192405
395491221,0.818396,-0.36032,-0.239391,0.183561
395523971,-0.333668,-0.288659,-0.254751,0.189113
395552784,0.166713,-0.216748,-0.260505,0.186905
395584797,-0.378245,-0.316465,-0.268396,0.196182
395617597,-0.449031,-0.17931,-0.269738,0.199977
395650382,-0.0174081,0.0126759,-0.271992,0.195225
395678402,-0.682509,-0.021481,-0.268317,0.200378
395711170,0.168743,-0.210663,-0.272904,0.195906
395744010,0.316081,-0.103936,-0.269948,0.196244
395776021,-0.0924909,-0.134362,-0.264837,0.191375
395804794,0.854063,-0.0764813,-0.260494,0.201619
395837609,-0.0156112,-0.0415943,-0.257337,0.205195
395869603,-0.24837,0.106963,-0.256853,0.207804
395902390,0.854789,-0.0540683,-0.261952,0.210102
395931194,0.225012,0.264144,-0.25762,0.201626
395963221,0.649866,0.491333,-0.262563,0.21334
395995992,0.331789,-0.214659,-0.245698,0.212561
396028792,-0.497062,-0.277206,-0.236037,0.212228
396061596,0.817219,0.152608,-0.23089,0.20719
396093570,0.808196,0.253939,-0.223623,0.212619
396126408,0.173186,-0.392889,-0.204937,0.210824
396155228,0.102564,-0.127168,-0.191941,0.211415
396187212,0.208808,-0.0635827,-0.182125,0.207977
396220003,0.0886903,-0.145603,-0.168374,0.209467
396252802,-0.531752,0.114067,-0.158391,0.206453
396281590,-0.702661,-0.114667,-0.157322,0.204128
396313581,-0.452161,0.0131209,-0.149936,0.196818
396346428,0.758523,0.17927,-0.142233,0.202428
396378416,-0.0840425,-0.325119,-0.134271,0.205042
396407174,-0.374098,-0.131622,-0.132597,0.195504
396440011,0.91039,-0.111892,-0.124483,0.202166
396472816,0.0491557,-0.241802,-0.119329,0.202677
396504785,0.0382239,-0.062182,-0.126239,0.190114
396533591,-0.389635,-0.393683,-0.129666,0.194328
396565618,0.478185,0.128831,-0.128814,0.189525
396598410,0.36996,-0.267304,-0.128162,0.203429
396627209,0.358923,-0.0573382,-0.129957,0.190438
396659259,-0.0909332,-0.397344,-0.127945,0.201897
396691973,-0.539144,0.15731,-0.117325,0.197049
396724822,0.325962,0.188997,-0.122827,0.193843
396753609,-0.113977,-0.34133,-0.118318,0.201697
396785594,-0.131606,0.182374,-0.11068,0.187193
396818382,0.448293,-0.311306,-0.112954,0.1916
396851176,0.0258047,0.0321844,-0.108618,0.192631
396879228,0.799265,-0.195336,-0.1077,0.19159
396912029,-0.687878,-0.548111,-0.119078,0.195671
396944779,0.177637,-0.181505,-0.108903,0.192636
396976794,0.407136,-0.300569,-0.115873,0.189999
397005591,0.651772,0.00922876,-0.114687,0.195808
397038384,0.236707,-0.583374,-0.121307,0.205316
397070427,-0.105876,-0.406706,-0.118729,0.21346
397103179,0.229199,0.123833,-0.116444,0.213954
397132012,-0.15492,0.0118083,-0.109869,0.21168
397164798,-0.062417,-0.0203793,-0.112309,0.213239
397196818,0.385463,-0.0312411,-0.115773,0.216039
397225612,-0.245427,-0.0743809,-0.112814,0.216477
397257608,0.752907,-0.0185857,-0.121121,0.215148
397290400,-0.0266625,-0.0162414,-0.116963,0.215318
397323196,-0.262717,-0.316688,-0.115629,0.212512
397351181,0.632376,-0.282771,-0.107172,0.218498
397383974,0.0602946,0.0594797,-0.101844,0.216313
397416813,-0.135609,-0.195394,-0.0970728,0.214274
397449616,-0.217251,0.108194,-0.08401,0.210128
397481610,0.751335,-0.0361137,-0.0836608,0.208709
397514402,-0.183116,-0.252007,-0.0796941,0.21688
397547224,-0.451336,-0.227576,-0.0775944,0.219826
397579230,0.592069,0.00386329,-0.0709435,0.230283
397608027,0.147382,-0.0174957,-0.0632736,0.218241
397640803,-0.33748,-0.327422,-0.0653498,0.218768
397672791,0.642377,-0.391156,-0.0565255,0.228865
397701620,-0.18701,0.207931,-0.0507206,0.204028
397734414,0.494488,0.100919,-0.0562563,0.209325
397767222,0.181626,-0.280755,-0.0484121,0.217749
397799268,-0.409772,-0.241769,-0.0491886,0.220142
397827999,0.657498,-0.0466434,-0.0434786,0.207953
397860014,0.211257,-0.445572,-0.0380517,0.215494
397892817,-0.883575,-0.344522,-0.0471395,0.221982
397925604,0.709638,-0.371837,-0.0518927,0.222062
397954404,-0.135971,-0.120894,-0.0574629,0.222846
397986400,-0.0562267,-0.154609,-0.0683978,0.219675
398019271,0.373979,-0.440989,-0.0763026,0.215181
398047979,0.346765,-0.113691,-0.0812215,0.225255
398079957,0.0524835,-0.12163,-0.0877672,0.225051
398112808,0.351867,-0.587602,-0.0837154,0.215174
398145610,-0.304562,-0.150183,-0.0849321,0.220473
398177599,-0.120554,-0.244323,-0.0911731,0.212145
398206415,0.0705714,-0.657845,-0.0891925,0.2291
398239249,-0.320914,-0.176024,-0.0800898,0.221123
398271217,0.235414,-0.060721,-0.0811007,0.216029
398300011,-0.169804,-0.458077,-0.0878701,0.227222
398332819,-0.460876,-0.20694,-0.0860585,0.218258
398365575,0.328454,-0.0795458,-0.0873974,0.213291
398397608,-0.484406,-0.482159,-0.100202,0.201486
398426408,-0.439627,-0.240803,-0.0968045,0.21233
398459261,0.332873,-0.345895,-0.0911564,0.207356
398491197,-0.360294,-0.488913,-0.100568,0.210382
398524027,-0.878043,-0.240172,-0.0960313,0.208568
398552794,-0.155092,-0.572184,-0.0970058,0.207426
398584813,-0.46393,-0.230922,-0.0824262,0.205783
398617592,0.517788,-0.11279,-0.0788633,0.204963
398646380,0.0658582,0.0274607,-0.0737691,0.20751
398678398,-0.0608871,0.235609,-0.0720533,0.198733
398711176,1.08277,-0.0906632,-0.0793347,0.206252
398744007,-0.0374962,-0.566208,-0.0930113,0.212891
398772004,1.00453,-0.152855,-0.0913038,0.196873
398804822,-0.651092,-0.411092,-0.0970207,0.205542
398837614,0.39955,-0.113635,-0.098647,0.206122
398869612,0.651008,-0.27963,-0.101788,0.203425
398898409,-0.580881,0.0867541,-0.0988016,0.203478
398931191,0.707523,-0.208534,-0.108514,0.202309
398963180,0.144022,-0.161206,-0.110908,0.200569
398995984,-0.327378,-0.412038,-0.110004,0.198506
399024791,0.844122,-0.389828,-0.103054,0.194568
399056826,-0.415652,-0.378254,-0.112096,0.204335
399089615,-0.0126286,0.526246,-0.10405,0.200899
399122367,0.82327,-0.116911,-0.103363,0.202787
399151220,-0.0640089,0.0214537,-0.0935803,0.200125
399183222,0.551821,-0.0465995,-0.102722,0.209379
399216021,0.553008,0.139508,-0.101245,0.211387
399244797,0.613306,0.108946,-0.0958278,0.207864
399276776,0.468359,-0.029407,-0.0881047,0.211361
399309589,-0.112931,-0.249976,-0.0897397,0.210691
399342377,0.537865,0.244182,-0.0990648,0.21043
399374424,0.389458,-0.295344,-0.0899113,0.216925
399403219,0.193731,-0.195899,-0.0956019,0.212665
399436000,0.430473,-0.288488,-0.0896275,0.216532
399468811,-0.186159,-0.11054,-0.0895109,0.223185
399500789,-0.518649,-0.0367486,-0.0904294,0.226854
399529611,0.270737,-0.112765,-0.0974929,0.213988
399561609,-0.446994,-0.276313,-0.0933333,0.22095
399594416,0.737502,0.231163,-0.0942278,0.216333
399623200,0.420753,-0.267689,-0.0876842,0.21044
399655192,-0.624626,-0.31929,-0.0894124,0.209629
399687973,0.282359,0.253782,-0.0841073,0.206256
399720813,1.04148,-0.252196,-0.0737075,0.207442
399752789,-0.337869,-0.358891,-0.0790504,0.211664
399781612,0.084465,-0.0782483,-0.0715448,0.213773
399814374,0.675739,-0.240135,-0.0729927,0.21208
399847188,-0.328013,-0.309637,-0.0664547,0.214148
399875217,0.335205,-0.156701,-0.0652364,0.217934
399908000,-0.209392,-0.6902,-0.0658167,0.216627
399940795,-0.1784,-0.0221424,-0.0538682,0.21498
399972798,-0.0302993,-0.201236,-0.0590691,0.212757
400001619,-0.455721,-0.502551,-0.0610455,0.213114
400034418,-0.226025,0.0354181,-0.0559669,0.213535
400066372,0.206609,0.106334,-0.0564865,0.218009
400099230,-0.113046,-0.257757,-0.0538404,0.223202
400128007,-0.269846,-0.0410455,-0.0485407,0.21407
400159956,0.0722997,-0.385378,-0.0466907,0.219585
400192818,0.0437211,-0.111152,-0.0381056,0.215323
400221604,0.141938,0.297351,-0.0336423,0.218397
400253613,0.0553681,-0.57875,-0.0342538,0.216733
400286395,-0.661013,-0.298804,-0.030926,0.213066
400319275,0.0939016,0.183292,-0.026361,0.205833
400351213,0.30046,-0.0893248,-0.0320699,0.217972
400379969,-0.512717,0.026387,-0.0235575,0.206558
400412798,0.437159,0.165775,-0.0309647,0.199692
400445613,0.815863,0.0559079,-0.0308723,0.205185
400477597,-0.662211,0.0475318,-0.0255926,0.216587
400510417,0.867951,0.327154,-0.0398669,0.209821
400543219,0.297585,0.0477372,-0.0390738,0.2127
400575165,-0.455307,-0.268033,-0.0413705,0.208793
400607999,0.505624,0.445683,-0.0460782,0.210947
400640784,0.372704,-0.243603,-0.0529678,0.214646
400672796,-0.00375174,-0.380504,-0.0613774,0.219361
400701565,0.652223,-0.0627493,-0.0725084,0.222095
400734424,0.143972,-0.243067,-0.0770166,0.222234
400767218,-0.12888,-0.201381,-0.0914497,0.20621
400799231,0.705695,0.058561,-0.0960283,0.204752
400828016,-0.211877,0.101948,-0.0918598,0.208677
400860808,1.00142,0.0565283,-0.104558,0.201565
400892807,0.576228,-0.205961,-0.10782,0.202749
400921599,-0.209483,0.0182618,-0.100682,0.202091
400954385,1.13691,-0.0466918,-0.10679,0.194851
400986403,-0.159235,-0.230699,-0.110827,0.193287
401019267,-0.375757,-0.0408853,-0.107302,0.19702
401048015,-0.293009,-0.594897,-0.120009,0.195215
401080010,-0.257999,0.145359,-0.110097,0.197031
401112815,0.33588,0.168114,-0.119873,0.200156
401145612,0.0437916,-0.236251,-0.116986,0.205959
401173611,0.201177,-0.145757,-0.116527,0.206607
401206404,0.205264,-0.0942611,-0.121391,0.207966
401239243,0.119847,0.0285649,-0.118168,0.206756
401271221,0.198076,0.342671,-0.115741,0.206065
401300000,-0.650978,-0.0272517,-0.116481,0.219314
401332819,-0.159179,-0.0611956,-0.124547,0.214062
401365622,0.453633,0.303836,-0.128552,0.216815
401397611,-0.2437,-0.340395,-0.1278,0.217948
401426417,0.352619,-0.237184,-0.126298,0.206773
401459262,0.543332,-0.0509187,-0.126209,0.214093
401491223,-0.0136963,-0.0659387,-0.1251,0.214554
401519996,0.838577,-0.0488764,-0.128248,0.214718
401552814,-0.326141,-0.273085,-0.135299,0.205344
401584812,-0.335434,-0.0124276,-0.133415,0.202438
401617599,0.707391,0.321113,-0.134871,0.206191
401645591,-0.128576,-0.169026,-0.130809,0.207852
401678421,-0.310161,-0.0567745,-0.133851,0.200512
401711223,0.438987,-0.0939549,-0.13344,0.20408
401744014,0.0765652,-0.148595,-0.12737,0.202591
401772028,0.389176,-0.0785837,-0.123696,0.199275
401804812,0.301881,-0.616907,-0.124367,0.204788
401837589,-0.677823,-0.499172,-0.127546,0.205905
401869611,0.514021,0.00745547,-0.116576,0.196512
401898414,-0.237606,-0.116896,-0.112126,0.20554
401931211,-0.253923,-0.0267526,-0.104606,0.203861
401963193,0.270388,-0.391829,-0.102399,0.201101
401996017,-0.373989,-0.346723,-0.0947567,0.199518
402024817,0.672977,0.155483,-0.088069,0.195886
402056819,0.358234,-0.190991,-0.0785163,0.194796
402089600,-0.313336,0.0800617,-0.0678306,0.199199
402118407,-0.0425624,-0.160162,-0.0728101,0.203291
402150422,0.0393355,0.164478,-0.0642271,0.20784
402183218,1.07913,0.0424605,-0.0637603,0.213232
402216010,-0.576601,-0.0984298,-0.0601223,0.213005
402243991,0.501274,-0.0191444,-0.0639276,0.215566
402276809,0.732657,0.0389291,-0.0618392,0.209321
402309599,0.0798512,0.265492,-0.0574331,0.206352
402342415,0.7596,-0.203201,-0.0623558,0.208561
402370423,0.131361,-0.0711194,-0.0601218,0.20538
402403188,0.512426,0.216361,-0.0679516,0.204846
402436007,0.224103,-0.348976,-0.0684475,0.207284
402468011,-0.0368626,-0.197521,-0.0684343,0.216347
402496795,0.47092,-0.128524,-0.0764457,0.204864
402529610,-0.107139,-0.288856,-0.0738261,0.210151
402561608,-0.320939,-0.114484,-0.0745491,0.210454
402594399,0.322583,0.293434,-0.0788194,0.207896
402623193,-0.58851,-0.37347,-0.0754826,0.203192
402655184,0.299212,0.0397135,-0.0757762,0.211364
402687966,-0.274106,-0.204671,-0.0831921,0.214045
402720769,0.0668786,-0.222403,-0.0853897,0.216743
402749614,0.562987,-0.0173797,-0.0936736,0.220496
402781602,0.163976,-0.276014,-0.0980944,0.220071
402814420,-0.331823,-0.397798,-0.101805,0.2194
402842418,0.0649635,-0.566864,-0.100191,0.230257
