timestamp,rollspeed,pitchspeed,yawspeed,rollspeed_integ,pitchspeed_integ,yawspeed_integ,additional_integ1
362153602,0.000378507,0.000294948,-1.44813e-05,7.96635e-05,-4.46584e-06,-9.34635e-07,0.0
362186438,0.0407106,-0.00730678,-0.0258873,0.000126675,-2.66507e-06,6.67137e-07,0.0
362214392,0.00402087,-0.00272262,0.018834,0.000136964,-9.33118e-07,1.33048e-05,0.0
362247246,0.00905135,0.0105492,0.0134234,0.000136964,-9.33118e-07,1.33048e-05,0.0
362280039,0.0248842,0.0575913,-0.0327803,0.000136964,-9.33118e-07,1.33048e-05,0.0
362312815,-0.0461537,-0.155062,0.0256079,0.000136964,-9.33118e-07,1.33048e-05,0.0
362341635,-0.0987784,0.00217105,-0.00813557,0.000136964,-9.33118e-07,1.33048e-05,0.0
362373628,0.0486281,-0.167169,0.151987,0.000136964,-9.33118e-07,1.33048e-05,0.0
362406407,0.0660406,-0.0354671,0.00604259,0.000136964,-9.33118e-07,1.33048e-05,0.0
362438428,-0.0720486,0.167441,-0.0814458,0.000136964,-9.33118e-07,1.33048e-05,0.0
362467215,0.0453442,-0.134457,0.0388023,0.000136964,-9.33118e-07,1.33048e-05,0.0
362500032,0.0687583,0.0171028,0.0255287,0.000136964,-9.33118e-07,1.33048e-05,0.0
362531992,0.0324354,0.2105,-0.0168781,0.000136964,-9.33118e-07,1.33048e-05,0.0
363961635,0.537439,0.187248,0.471059,0.00960544,0.0041826,-0.020529,0.0
363993632,0.181159,-0.0960719,-0.111194,0.00989539,0.00455414,-0.0208759,0.0
364026442,-0.771739,-0.355312,0.120346,0.0102768,0.00473194,-0.0213937,0.0
364058414,0.20263,0.407403,0.267316,0.0103621,0.00451315,-0.0219191,0.0
364091191,0.450958,-0.0121498,-0.212039,0.010644,0.00469267,-0.0221707,0.0
364120010,-0.171921,0.0499901,0.156007,0.0112007,0.00475452,-0.0226526,0.0
364152012,-0.0262476,0.100735,-0.20359,0.0115804,0.00468475,-0.0230454,0.0
364184793,0.402948,0.0678719,-0.171176,0.0114404,0.00422609,-0.0234947,0.0
364213643,0.986465,-0.0625421,0.00925612,0.0112163,0.00414453,-0.0238509,0.0
364245590,-0.369197,-0.539369,-0.145268,0.0116897,0.00408128,-0.0241106,0.0
364278418,-0.114892,-0.263406,0.00361912,0.0120891,0.00450156,-0.024842,0.0
364311235,0.399066,0.0739016,0.170607,0.0123759,0.00494468,-0.0253215,0.0
364340037,-0.434388,-0.0282082,-0.108974,0.0125249,0.00486459,-0.0255395,0.0
364372045,0.485712,-0.0372013,-0.104741,0.0132008,0.00453667,-0.0251776,0.0
364404833,0.038579,-0.206158,-0.0211144,0.0131623,0.00497232,-0.0257059,0.0
364437602,-0.723815,-0.337438,-0.251333,0.0136933,0.00559068,-0.0259506,0.0
364465619,0.102589,-0.116547,-0.0818879,0.0137879,0.00567731,-0.0262142,0.0
364498442,-0.245401,0.123974,0.00468859,0.0143284,0.00546265,-0.0265766,0.0
364531247,-0.23386,0.16889,0.130984,0.014592,0.00528936,-0.0269276,0.0
364563255,0.0579554,0.168011,-0.0921751,0.0149876,0.00517152,-0.0274468,0.0
364592012,0.0374821,0.350026,0.237181,0.0150521,0.00481611,-0.0277964,0.0
364624839,0.56848,0.0876109,-0.118653,0.0148356,0.00467788,-0.0280541,0.0
364656839,-1.12784,-0.328381,-0.136312,0.0147767,0.00474083,-0.0282149,0.0
364689623,0.899401,0.305747,0.691644,0.0142314,0.00452837,-0.0290085,0.0
364718436,0.211051,-0.32493,-0.0626987,0.0142839,0.00502135,-0.0291814,0.0
364750444,-0.692592,-0.403188,-0.197677,0.0146442,0.0057344,-0.0294832,0.0
364783234,0.164399,0.339733,0.178402,0.0146724,0.00594302,-0.0298382,0.0
364811997,-0.159812,0.102448,-0.0532248,0.0149594,0.00606287,-0.0300011,0.0
364844011,0.408336,0.182546,-0.00115453,0.014954,0.00608404,-0.0302496,0.0
364876836,-0.216756,0.0878385,0.0353719,0.0153433,0.00606588,-0.0306943,0.0
364909626,0.274281,0.375769,0.17187,0.0153527,0.00582386,-0.0311335,0.0
364938433,0.678614,0.0820415,-0.215512,0.0151859,0.00568105,-0.0312471,0.0
364970438,-1.14976,-0.225576,0.046128,0.0157452,0.00558007,-0.0314596,0.0
365003225,0.947235,0.3938,0.779981,0.0156366,0.00502904,-0.0317781,0.0
365036044,-0.189434,0.0344123,-0.131731,0.0157793,0.00534505,-0.0320362,0.0
365064042,-0.512957,0.0564964,0.11384,0.015747,0.00539909,-0.0324561,0.0
365096816,0.507674,0.146025,0.143065,0.015634,0.00535624,-0.0328319,0.0
365129589,-0.375644,-0.167853,-0.108999,0.0159305,0.00544952,-0.0331163,0.0
365161623,-0.447617,0.00584074,-0.128731,0.0161193,0.00538047,-0.0334282,0.0
365190391,0.540423,-0.0375515,-0.0673062,0.0160812,0.0054018,-0.0336251,0.0
365223254,-0.750386,-0.441688,-0.11905,0.0161311,0.00551694,-0.0339944,0.0
365256030,0.0988934,-0.402216,0.0823219,0.0157915,0.00553891,-0.0343931,0.0
365288037,-0.393504,0.0956821,0.115717,0.0161185,0.00579701,-0.0345388,0.0
365316822,-1.25108,-0.622053,-0.457862,0.0168972,0.00613166,-0.0347693,0.0
365348834,0.20217,0.011176,0.407293,0.0168175,0.00614716,-0.0352226,0.0
365381629,-0.367472,-0.110925,0.138179,0.0169074,0.0065178,-0.0351753,0.0
365410424,-0.227215,-0.21092,-0.280799,0.0170735,0.00680555,-0.0352916,0.0
365442418,0.192314,-0.0689066,-0.138974,0.0172114,0.00665387,-0.0355978,0.0
365475231,-0.672348,0.265459,0.0519128,0.0175725,0.00661574,-0.0358318,0.0
365508007,0.921135,0.0894345,0.0370596,0.017644,0.00650166,-0.0360785,0.0
365536030,1.20831,0.126512,0.525421,0.0173225,0.00647422,-0.0365579,0.0
365568821,-0.439382,-0.0645494,0.124497,0.0173987,0.00695986,-0.0368854,0.0
365601637,0.607014,-0.0162302,0.219753,0.0173492,0.00765657,-0.0371556,0.0
365634452,0.0470511,0.088405,0.0243464,0.0177079,0.00798203,-0.0374268,0.0
365662442,-0.120782,0.306498,0.145976,0.0177484,0.00778055,-0.0377159,0.0
365695230,0.319737,0.291805,-0.0443129,0.017702,0.00774098,-0.0378525,0.0
365727996,-0.0121491,0.235436,-0.0513307,0.0180559,0.00780109,-0.0382342,0.0
365760030,0.229138,-0.0731925,-0.200902,0.0181448,0.00784799,-0.0385196,0.0
365788836,-0.439273,0.374117,0.084839,0.0184065,0.00773743,-0.0386647,0.0
365821599,0.681913,0.127579,-0.14678,0.0185955,0.00755707,-0.0389389,0.0
365853642,-0.446059,0.0450755,-0.165769,0.0187026,0.00722736,-0.0394586,0.0
365886434,0.294172,-0.349029,-0.117634,0.018682,0.00721851,-0.0398534,0.0
365915241,0.786825,-0.088061,0.274823,0.0185529,0.00745725,-0.0401918,0.0
365948008,0.176247,0.147742,0.130781,0.0186971,0.00774743,-0.040511,0.0
365980015,0.333034,-0.20988,-0.194707,0.0187514,0.00796283,-0.0406349,0.0
366008847,0.509471,0.125573,0.0800213,0.0186509,0.00799403,-0.0409149,0.0
366041597,-0.176807,0.129555,0.0606323,0.019102,0.008034,-0.0413384,0.0
366073640,0.728081,0.0937634,0.0314889,0.0192528,0.0081028,-0.0415191,0.0
366106427,-0.702688,-0.0595315,-0.217856,0.0198027,0.00792284,-0.0417467,0.0
366138416,0.275174,0.158398,0.152197,0.0194566,0.00774677,-0.0423746,0.0
366167204,-0.383726,0.240969,0.202916,0.0196266,0.00785134,-0.0425849,0.0
366200033,0.449014,0.195127,0.230745,0.0196031,0.00796816,-0.042844,0.0
366231998,-0.0640218,0.113695,-0.0849469,0.0197286,0.00790052,-0.0431135,0.0
366261633,-0.243096,0.0729699,-0.0497279,0.0195981,0.00759491,-0.0434533,0.0
366293616,0.27307,-0.00723553,0.138643,0.0194169,0.00751685,-0.0437835,0.0
366326405,-0.0314599,-0.0375405,0.0108288,0.019585,0.0075911,-0.0441202,0.0
366358446,0.902986,0.130437,0.170935,0.0193786,0.00771078,-0.0443416,0.0
366387211,-1.03073,-0.288429,0.0037837,0.0195163,0.00769582,-0.0446366,0.0
366420022,0.608357,0.158271,0.348312,0.0188903,0.00750379,-0.0453275,0.0
366452004,-0.826212,-0.13857,0.217815,0.0188579,0.00761966,-0.0456118,0.0
366484831,0.0731901,0.030243,0.224619,0.0187105,0.00791023,-0.0458838,0.0
366513595,-0.481726,-0.0677718,-0.325472,0.0191793,0.00817487,-0.0460968,0.0
366545636,0.478062,-0.0493231,-0.337934,0.0195437,0.00840446,-0.0461833,0.0
366578413,-0.19245,-0.128841,-0.259358,0.0198352,0.00843499,-0.0464064,0.0
366611179,0.17531,-0.152908,-0.320059,0.0197313,0.00838477,-0.0465636,0.0
366639248,0.20178,0.0373287,0.21952,0.0197787,0.00844474,-0.0468061,0.0
366672024,0.151118,0.069173,0.0341077,0.0200107,0.00862776,-0.0469216,0.0
366704831,-0.263074,0.344439,0.121607,0.0201544,0.00875463,-0.0471345,0.0
366736833,0.311646,-0.0950869,-0.331692,0.0204128,0.00883843,-0.047083,0.0
366765606,0.835218,0.288093,0.389375,0.0198478,0.00868419,-0.0476297,0.0
366798436,0.135239,-0.234247,0.152386,0.0196738,0.00871653,-0.047959,0.0
366830403,0.154866,0.159464,-0.0256533,0.0196702,0.00895455,-0.0480856,0.0
366863186,0.231898,0.274294,0.212838,0.0202394,0.00913502,-0.0484692,0.0
366892026,-0.126649,0.109188,0.0223878,0.0206836,0.00908762,-0.0487029,0.0
366924818,-0.422832,0.0484711,0.14626,0.0211741,0.00907822,-0.0489573,0.0
366956844,0.446858,0.25917,0.252144,0.0210622,0.00907575,-0.0491885,0.0
366985639,-0.0396062,-0.069526,-0.0862648,0.021162,0.00907449,-0.0492722,0.0
367018443,-0.422463,0.0348795,-0.283245,0.0215375,0.0088949,-0.0493262,0.0
367050442,0.952636,0.244545,0.458843,0.0213901,0.00867631,-0.0495847,0.0
367083219,-0.168927,-0.106356,-0.0820755,0.0220232,0.00870105,-0.0497676,0.0
367112016,0.295021,-0.505664,-0.184221,0.022124,0.00910406,-0.0498749,0.0
367144022,-0.351362,-0.376891,-0.217003,0.0224139,0.00958914,-0.0500193,0.0
367176830,0.102373,0.112447,0.225647,0.0222781,0.00981402,-0.0502167,0.0
367209635,0.325746,0.0857901,0.0753139,0.0223214,0.0102356,-0.0501517,0.0
367237632,-0.5596,-0.155271,0.0488138,0.0227136,0.0105399,-0.0502646,0.0
367270439,0.138115,0.450814,0.107211,0.0229651,0.0107784,-0.0504069,0.0
367303232,0.55993,-0.0911507,-0.25965,0.0231522,0.0106574,-0.0504591,0.0
367335254,-0.62328,0.337874,0.268426,0.0233481,0.010536,-0.0505327,0.0
367364037,-0.630412,0.245529,0.124948,0.0233481,0.010536,-0.0505327,0.0
367396814,1.05168,0.343033,0.256423,0.0233481,0.010536,-0.0505327,0.0
367428818,-0.184656,-0.172388,0.123123,0.0233481,0.010536,-0.0505327,0.0
367461624,0.0644009,-0.336357,-0.226184,0.0233481,0.010536,-0.0505327,0.0
367494377,-0.0558445,-0.195312,0.0672545,0.0233481,0.010536,-0.0505327,0.0
367527243,0.149879,-0.139497,0.311117,0.0233481,0.010536,-0.0505327,0.0
367559290,-0.25277,0.168674,0.232814,0.0233481,0.010536,-0.0505327,0.0
367588029,0.0112625,0.404642,0.305027,0.0233481,0.010536,-0.0505327,0.0
367620830,0.34396,-0.131401,0.238892,0.0233481,0.010536,-0.0505327,0.0
367652832,-0.00944708,-0.196884,0.26785,0.0233481,0.010536,-0.0505327,0.0
367685644,-0.15839,0.23651,0.421218,0.0233481,0.010536,-0.0505327,0.0
367714424,-0.251648,0.12776,0.36768,0.0233481,0.010536,-0.0505327,0.0
367746416,-0.204333,0.0838361,0.405837,0.0233481,0.010536,-0.0505327,0.0
367779274,0.364778,0.159161,0.453159,0.0233481,0.010536,-0.0505327,0.0
367807983,0.0575468,0.146183,0.338824,0.0233481,0.010536,-0.0505327,0.0
367839990,0.353627,0.0107615,0.303594,0.0233481,0.010536,-0.0505327,0.0
367872836,-0.0589963,-0.0639634,0.448072,0.0233481,0.010536,-0.0505327,0.0
367905613,-0.58968,-0.780319,0.484856,0.0233481,0.010536,-0.0505327,0.0
367938436,0.374821,-1.29294,0.458696,0.0233481,0.010536,-0.0505327,0.0
367970443,0.136702,-1.51029,0.655021,0.0233481,0.010536,-0.0505327,0.0
368003240,-0.838722,-1.70783,0.375266,0.0233481,0.010536,-0.0505327,0.0
368031243,-0.368403,-2.14818,0.242288,0.0233481,0.010536,-0.0505327,0.0
368064024,0.585658,-2.10812,0.299997,0.0233481,0.010536,-0.0505327,0.0
368096810,-0.0577903,-1.76176,0.874876,0.0233481,0.010536,-0.0505327,0.0
368129641,-0.106308,-1.22648,0.862657,0.0233481,0.010536,-0.0505327,0.0
368161634,-0.218089,-1.27901,0.42874,0.0233481,0.010536,-0.0505327,0.0
368194394,0.14964,-1.01563,0.631873,0.0233481,0.010536,-0.0505327,0.0
368227242,-0.497454,-0.422531,0.446773,0.0233481,0.010536,-0.0505327,0.0
368255243,-0.32461,-0.46472,0.443979,0.0233481,0.010536,-0.0505327,0.0
368288036,0.0215127,-0.240444,0.320782,0.0233481,0.010536,-0.0505327,0.0
368320819,-0.617727,0.106221,0.17493,0.0234936,0.0103938,-0.0505327,0.0
368352841,0.354568,-0.169573,0.007271,0.0230402,0.0105948,-0.0505327,0.0
368385645,-0.792887,0.0840218,0.153975,0.0233518,0.0104898,-0.0505327,0.0
368418425,0.652614,0.0504633,-0.0750185,0.023984,0.0102429,-0.0505327,0.0
368451203,-0.0895055,0.149106,-0.079178,0.0235781,0.0106311,-0.0505327,0.0
368483240,0.760959,0.739321,0.274806,0.0238685,0.0103212,-0.0505327,0.0
368512038,-0.209348,0.207892,-0.0501422,0.0237471,0.0105031,-0.0505327,0.0
368544836,0.131263,0.348849,0.14916,0.0236841,0.00972757,-0.0517157,0.0
368576813,0.274274,-0.0729788,-0.483579,0.0235602,0.00917717,-0.0525041,0.0
368609647,0.16206,-0.225387,-0.366273,0.0234417,0.00906481,-0.0527804,0.0
368638420,-0.291729,0.186572,-0.318134,0.0229728,0.00945083,-0.0526537,0.0
368670440,0.0324633,-0.228496,-0.165607,0.0230316,0.00944182,-0.0528888,0.0
368703251,-0.973292,-0.278951,-0.598222,0.0231294,0.00906064,-0.0531318,0.0
368732027,0.0294631,-0.144444,-0.144002,0.0227173,0.00861804,-0.0535414,0.0
368764020,-0.69571,-0.016594,-0.52835,0.0226808,0.00836225,-0.0536946,0.0
368796812,-0.602066,0.0390849,-0.259448,0.0228908,0.00859995,-0.0539512,0.0
368829636,0.233196,0.305999,0.343082,0.0228197,0.00897264,-0.0544096,0.0
368861636,0.127157,0.495633,-0.527538,0.0230686,0.00897758,-0.0541933,0.0
368890387,-0.0546421,0.631093,0.0954725,0.0231031,0.00896625,-0.0544478,0.0
368923239,-0.30432,0.997484,-0.560936,0.0228269,0.00851984,-0.0544542,0.0
368956043,-0.0427759,0.844285,-0.408493,0.022258,0.00768292,-0.0547935,0.0
368984045,-0.767269,1.22303,0.0994219,0.0225239,0.00730126,-0.0548912,0.0
369016827,0.373048,1.10888,-0.450217,0.022938,0.00671316,-0.0548793,0.0
369049596,0.0736203,1.42826,0.517729,0.0232558,0.00576767,-0.0553579,0.0
369081616,-0.363088,1.20729,0.00490831,0.0235757,0.00496114,-0.0555258,0.0
369110418,0.62554,0.664312,0.00522362,0.0235334,0.00402937,-0.0558404,0.0
369143191,0.942545,0.655465,0.5351,0.0230989,0.00346849,-0.0557721,0.0
369175256,0.0881417,-0.217755,-0.494085,0.0236754,0.00262705,-0.055333,0.0
369208017,-0.194781,-0.108306,-0.120626,0.0238632,0.00206015,-0.0560082,0.0
369240833,1.07113,0.565952,0.570496,0.023345,0.00170871,-0.0563096,0.0
369273598,0.0198509,-0.0312733,-0.158069,0.0237908,0.000977892,-0.0566219,0.0
369305609,0.328408,0.409081,0.66495,0.0233587,0.000977892,-0.0566219,0.0
369334435,-0.552718,0.722167,0.514638,0.0233587,0.000977892,-0.0566219,0.0
369366441,0.0664064,0.610717,0.209726,0.0233587,0.000977892,-0.0566219,0.0
369399287,-1.14056,-0.0867645,-0.0777773,0.0233587,0.000977892,-0.0566219,0.0
369432030,-0.741809,0.0307109,0.385718,0.0233587,0.000977892,-0.0566219,0.0
369460006,0.0853971,-0.00691296,-0.0298024,0.0233587,0.000977892,-0.0566219,0.0
369492844,0.268697,0.183198,0.467093,0.0233587,0.000977892,-0.0566219,0.0
369525628,0.123696,-0.975612,0.268697,0.0233587,0.000977892,-0.0566219,0.0
369557621,0.153421,0.358862,1.28971,0.0233587,0.000977892,-0.0566219,0.0
369586439,-0.92641,0.422411,0.419631,0.0233587,0.000977892,-0.0566219,0.0
369619274,1.79518,-0.496588,0.181576,0.0233587,0.000977892,-0.0566219,0.0
369652006,-0.886702,0.321205,0.342524,0.0233587,0.000977892,-0.0566219,0.0
369684039,1.87025,-0.24911,1.07769,0.0233587,0.000977892,-0.0566219,0.0
369712834,-0.459559,0.391073,0.440311,0.0233587,0.000977892,-0.0566219,0.0
369745621,-0.542089,0.82375,0.0834243,0.0233587,0.000977892,-0.0566219,0.0
369777599,-1.09754,0.728944,0.52514,0.0233587,0.000977892,-0.0566219,0.0
369806435,-0.00635158,-0.138566,-0.407626,0.0233587,0.000977892,-0.0566219,0.0
369839288,-1.71511,0.708309,0.458562,0.0233587,0.000977892,-0.0566219,0.0
369871197,0.466016,-0.141773,-0.114699,0.0233587,0.000977892,-0.0566219,0.0
369904023,0.486638,0.00172114,0.688318,0.0233587,0.000977892,-0.0566219,0.0
369932794,-0.419638,-0.036652,-0.808631,0.0233587,0.000977892,-0.0566219,0.0
369965632,-1.18389,-0.16419,0.016299,0.0233587,0.000977892,-0.0566219,0.0
369997630,0.110019,0.816315,-0.20546,0.0233587,0.000977892,-0.0566219,0.0
370030438,-1.15411,0.080308,0.123475,0.0233587,0.000977892,-0.0566219,0.0
370058405,0.780308,0.697898,-0.26602,0.0233587,0.000977892,-0.0566219,0.0
370091201,-0.393912,0.18252,0.188414,0.0233587,0.000977892,-0.0566219,0.0
370124033,-0.37087,0.276411,0.497691,0.0233587,0.000977892,-0.0566219,0.0
370156009,-1.57378,0.586285,-0.471719,0.0233587,0.000977892,-0.0566219,0.0
370184821,-0.645009,0.431223,0.330367,0.0233587,0.000977892,-0.0566219,0.0
370217626,0.381015,0.17565,-0.0462681,0.0233587,0.000977892,-0.0566219,0.0
370250418,-0.0274586,0.43175,-0.0631636,0.0233587,0.000977892,-0.0566219,0.0
370282435,0.444321,-0.609116,0.631195,0.0233587,0.000977892,-0.0566219,0.0
370311245,0.905378,-1.09089,-0.319042,0.0233587,0.000977892,-0.0566219,0.0
370344044,0.285439,0.876998,0.285803,0.0233587,0.000977892,-0.0566219,0.0
370376044,-0.162171,-0.575305,-0.369884,0.0233587,0.000977892,-0.0566219,0.0
370404799,1.92671,-0.158446,-0.358251,0.0233587,0.000977892,-0.0566219,0.0
370437596,-1.11726,-0.233368,0.145086,0.0233587,0.000977892,-0.0566219,0.0
370469617,1.89452,-0.190597,0.501073,0.0233587,0.000977892,-0.0566219,0.0
370502422,-0.287857,-0.257654,-0.367784,0.0233587,0.000977892,-0.0566219,0.0
370531236,-0.260628,0.366752,0.449575,0.0233587,0.000977892,-0.0566219,0.0
370563244,-0.698286,0.789754,-0.977766,0.0233587,0.000977892,-0.0566219,0.0
370596031,-0.376317,-0.638926,0.09665,0.0233587,0.000977892,-0.0566219,0.0
370628832,-0.109335,0.937609,-0.320006,0.0233587,0.000977892,-0.0566219,0.0
370656814,-2.03383,0.0914093,0.358017,0.0233587,0.000977892,-0.0566219,0.0
370689627,-0.0880078,0.4066,-0.227005,0.0233587,0.000977892,-0.0566219,0.0
370722429,-0.697184,1.59539,-0.56149,0.0233587,0.000977892,-0.0566219,0.0
370754437,1.14725,2.43922,-0.533503,0.0233587,0.000977892,-0.0566219,0.0
370783226,2.15603,3.37083,-0.44841,0.0233587,0.000977892,-0.0566219,0.0
370816042,3.16056,4.27949,-0.0218758,0.0233587,0.000977892,-0.0566219,0.0
370847989,2.17709,4.64334,-0.739214,0.0226345,0.000815488,-0.0571237,0.0
370876841,1.42796,4.36675,-1.41181,0.0211752,0.000815488,-0.0567772,0.0
370909630,0.77677,4.18443,-0.00287019,0.0190292,0.000815488,-0.0567772,0.0
370942442,0.49426,3.70204,-0.0813292,0.0173822,0.000815488,-0.0567772,0.0
370974415,-0.308734,2.35247,-0.604052,0.0159142,0.000815488,-0.0567282,0.0
371007239,1.70598,0.63619,-0.0186919,0.0145301,0.000815488,-0.0567282,0.0
371036024,-0.21702,0.0570178,0.249481,0.0145301,0.000815488,-0.0567282,0.0
371068029,0.584454,-1.16085,-0.113093,0.0141482,0.000306422,-0.0570685,0.0
371100822,0.727661,-2.05939,-0.289812,0.0123311,-0.000135071,-0.0573545,0.0
371129641,-0.421093,-2.29725,0.000587731,0.0109365,-0.000135071,-0.0573201,0.0
371161590,-0.444738,-4.02048,-0.817846,0.0101211,5.19941e-06,-0.0573074,0.0
371194434,-0.974988,-4.02678,-0.673685,0.009796,0.000938152,-0.0583747,0.0
371227250,-0.267797,-3.66674,-0.514964,0.00964691,0.000987804,-0.0588267,0.0
371255244,-0.2433,-2.3351,-0.354381,0.00964691,0.000987804,-0.0588257,0.0
371288023,0.346293,-2.36748,-0.592807,0.00965204,0.000987804,-0.0588257,0.0
371320837,-0.969921,-1.86929,-0.859495,0.00998194,0.00183244,-0.0592474,0.0
371352835,-1.29757,-1.13559,-0.640059,0.0105908,0.00301283,-0.0601771,0.0
371381620,-0.554088,-0.292595,-0.797658,0.0112442,0.00344846,-0.0607395,0.0
371414417,-0.086408,0.687457,-0.817875,0.0116204,0.00304677,-0.0616634,0.0
371447177,-0.380687,0.126908,-1.09856,0.0112636,0.00244784,-0.062375,0.0
371479255,0.758313,-0.201956,-0.879908,0.0109455,0.00190804,-0.0625839,0.0
371508036,1.15199,-0.489471,-0.538487,0.0102748,0.00185037,-0.0631086,0.0
371539977,-0.263469,0.179181,-0.515404,0.00990009,0.00179862,-0.0636634,0.0
371572841,-0.0174287,0.0353806,-0.434934,0.00997989,0.00177569,-0.0640462,0.0
371605619,0.596718,0.11774,-0.0559657,0.00972222,0.0018449,-0.0639739,0.0
371638432,0.0834333,-0.086798,0.0105408,0.0094409,0.00151496,-0.0641027,0.0
371670431,1.0892,0.134934,-0.546455,0.00842691,0.00163137,-0.0637466,0.0
371703224,0.530249,-0.168116,-0.367952,0.00857282,0.00185847,-0.0642083,0.0
371736033,-0.657567,-0.537928,-0.767482,0.00863006,0.00195488,-0.0641751,0.0
371768018,1.68932,0.230645,0.618563,0.00929602,0.00126555,-0.0636404,0.0
371800840,0.414065,0.00203813,-0.0630152,0.00960907,0.00126555,-0.0634963,0.0
371829639,0.492407,-0.0816133,0.332371,0.00960907,0.00126555,-0.0634963,0.0
371861593,-0.442103,-0.946472,-0.947463,0.00960907,0.00126555,-0.0634963,0.0
371894434,0.812144,-1.06377,0.394754,0.00940773,0.00192304,-0.0637779,0.0
371927233,0.404681,-0.762871,-0.254205,0.00926044,0.00301381,-0.0641119,0.0
371955237,0.973642,-0.53685,0.0988594,0.00934223,0.00321426,-0.0641119,0.0
371988038,0.94117,0.723982,-0.0946801,0.00864608,0.00344848,-0.0641119,0.0
372020828,-0.962326,0.47356,-0.383859,0.00868041,0.00301993,-0.0645806,0.0
372053619,0.90492,0.242617,0.646789,0.00854195,0.00253392,-0.0656391,0.0
372081620,0.310543,-0.563328,-0.679236,0.00886238,0.00263702,-0.0661584,0.0
372114439,0.093986,-0.334216,0.120646,0.00897435,0.00288982,-0.0659733,0.0
372147190,0.685447,0.337706,-0.0702496,0.00865836,0.00329895,-0.065587,0.0
372179291,0.927567,-0.656019,-0.621528,0.00915632,0.00303093,-0.065228,0.0
372208032,1.5504,-0.52664,0.0787525,0.00866859,0.00336751,-0.065503,0.0
372240837,-0.620154,-0.276898,-0.397481,0.00877442,0.00377744,-0.0662142,0.0
372272818,0.501113,0.150183,0.203093,0.00914858,0.00371903,-0.065951,0.0
372305643,-0.722633,-0.212107,-0.829817,0.0108568,0.00352239,-0.0657462,0.0
372334420,0.0625523,-0.0242561,-0.258867,0.0108109,0.00351572,-0.0665655,0.0
372366438,-0.328122,-0.270999,-0.311934,0.0111163,0.00369166,-0.066878,0.0
372399277,1.20721,-0.105775,0.595378,0.0107034,0.00367235,-0.066736,0.0
372428025,0.575987,-0.487669,-0.25453,0.0101541,0.00370774,-0.0666704,0.0
372460023,0.475177,-0.017873,0.0914732,0.00975032,0.00385466,-0.0671614,0.0
372492840,-0.124355,-0.0503092,-0.205479,0.00997956,0.00438317,-0.0674173,0.0
372525616,-0.191862,-0.539802,-0.0108915,0.0102389,0.00527395,-0.0678153,0.0
372554447,-0.0447617,-0.455958,-0.347717,0.0101949,0.0053959,-0.0678363,0.0
372586437,1.14282,-0.521634,-0.0960588,0.00951263,0.00566933,-0.0680577,0.0
372619288,-0.715891,-0.428537,-0.31747,0.00993956,0.00583211,-0.0679169,0.0
372652042,0.378473,0.256266,-0.0279045,0.00930025,0.00629528,-0.068026,0.0
372680042,-0.0924681,0.14432,0.359685,0.00890702,0.00683387,-0.0683379,0.0
372712817,0.581354,-0.395754,-0.107768,0.00838805,0.00740114,-0.0684967,0.0
372745610,0.00432309,-0.0738328,0.0365296,0.00843671,0.0079438,-0.0684845,0.0
372777611,0.295706,0.0919207,-0.20765,0.00877437,0.00814482,-0.0682053,0.0
372810446,-0.356655,-0.527563,-0.27808,0.00802266,0.00576233,-0.0693146,0.0
372843242,0.193042,0.204844,0.192115,0.00594792,0.00576233,-0.0692814,0.0
372876049,-0.467234,-1.26821,0.122109,0.00424243,0.00576233,-0.0692814,0.0
372904023,-1.0202,-2.63198,-0.0866087,0.00422716,0.00576233,-0.0693634,0.0
372936839,-1.90301,-2.36476,0.220575,0.0046272,0.00576233,-0.0701142,0.0
372968833,0.102034,-2.37286,-0.471311,0.00482707,0.00576233,-0.0713502,0.0
373001621,-1.70138,-1.96024,-0.322618,0.00594043,0.00741592,-0.0713502,0.0
373030422,-0.884385,-0.885875,-0.740669,0.00662507,0.00808123,-0.0713502,0.0
373062433,0.794078,0.341103,-0.51184,0.00612789,0.00927856,-0.0719421,0.0
373095218,-0.632193,0.692433,-0.280565,0.00633651,0.00974086,-0.0726232,0.0
373128000,1.35747,1.12922,-0.289114,0.00624614,0.0101164,-0.0730568,0.0
373156030,0.387444,1.18209,-0.274163,0.00580281,0.010826,-0.072828,0.0
373188838,0.617328,1.00387,-0.625448,0.0055007,0.0103308,-0.0740988,0.0
373221634,0.409189,1.24059,-0.269152,0.00569068,0.0103536,-0.0743688,0.0
373250434,0.110031,0.658265,-0.41418,0.00496177,0.0107333,-0.0748266,0.0
373282435,0.311032,0.921366,-0.191347,0.00519498,0.0108325,-0.0749156,0.0
373315232,0.109576,-0.0192519,-1.06874,0.00557391,0.0105262,-0.0750403,0.0
373348033,-0.285382,0.222138,-0.885802,0.0051572,0.0102549,-0.0752813,0.0
373380041,-0.341036,0.654335,-0.251936,0.00571234,0.00961272,-0.0750261,0.0
373408816,-0.826724,0.266459,-1.01342,0.00624473,0.0095027,-0.074852,0.0
373441607,0.82745,0.261149,0.111255,0.00606748,0.00934239,-0.0755255,0.0
373473642,0.898082,0.536789,-0.645368,0.00610118,0.0093609,-0.0754134,0.0
373502441,0.852994,0.738369,0.0844554,0.00576384,0.0094812,-0.0754869,0.0
373535236,0.543863,0.107618,-0.607639,0.0056455,0.00953868,-0.0750824,0.0
373568011,-0.619254,-0.447528,-1.04944,0.00596114,0.00880716,-0.0747146,0.0
373600039,0.297294,-0.474491,-0.144666,0.00598324,0.00776489,-0.0745832,0.0
373628789,-0.387168,-0.788237,-0.695416,0.0063297,0.00717831,-0.0743947,0.0
373661640,-0.6301,-0.541862,-0.103276,0.00646772,0.0065395,-0.0743113,0.0
373693645,-0.30123,-1.08479,-0.842102,0.00629961,0.00658254,-0.0735391,0.0
373726427,0.181354,-0.506452,0.198636,0.00557995,0.00625188,-0.0739142,0.0
373758425,-0.35414,-1.21702,-0.839257,0.00618695,0.00600704,-0.0731555,0.0
373791220,-0.891824,-1.14777,-0.213933,0.00645325,0.00616826,-0.0730449,0.0
373824020,0.574842,-0.830465,-0.139308,0.00707331,0.00629053,-0.0726291,0.0
373852804,0.380484,-1.04616,0.106465,0.00716122,0.00635025,-0.0724447,0.0
373885632,0.210943,-1.22649,-0.171855,0.00731384,0.0069185,-0.0721811,0.0
373917630,-0.113399,-0.653112,0.34709,0.0067407,0.00725102,-0.0718913,0.0
373950442,-0.0965804,-0.539617,-0.477731,0.00723014,0.00736652,-0.0716443,0.0
373982423,0.532866,-0.239068,0.591389,0.00738078,0.00687444,-0.0720907,0.0
374015238,-0.263359,-0.295828,0.00855542,0.00773718,0.00712455,-0.0720552,0.0
374048007,-0.254267,-0.236479,-0.296072,0.00786535,0.00711583,-0.0718305,0.0
374080027,0.159105,-0.152231,0.0572687,0.00766424,0.00663085,-0.0719308,0.0
374108817,-0.440087,-0.0191385,-0.247958,0.0080115,0.0063428,-0.0718316,0.0
374141644,-0.0924583,-0.0949283,0.314797,0.00779083,0.00610677,-0.0717811,0.0
374173645,0.485253,-0.25007,0.0823204,0.00754512,0.00604281,-0.0714984,0.0
374202432,-0.248576,-0.214154,0.329935,0.00761654,0.0056842,-0.0714545,0.0
374235234,0.443659,-0.183598,0.0447505,0.00764275,0.0053557,-0.0713888,0.0
374268030,0.216581,-0.158112,0.107019,0.00774009,0.00489085,-0.0713985,0.0
374300024,-0.573891,-0.435978,-0.194631,0.00834549,0.0044086,-0.0714205,0.0
374328812,0.275259,-0.0983312,0.0564348,0.00857273,0.00407971,-0.0714294,0.0
374361597,-0.317588,-0.72348,-0.206045,0.00882536,0.00412482,-0.071417,0.0
374393620,-0.469503,-0.745282,-0.231481,0.00926762,0.00395207,-0.0714682,0.0
374426426,0.318296,-0.0285303,0.188992,0.00930726,0.0034655,-0.0714072,0.0
374455201,-0.0223351,-0.339701,-0.342922,0.00946735,0.00343232,-0.0714228,0.0
374487193,-0.140617,-0.203422,0.263476,0.00968399,0.00360786,-0.0715853,0.0
374520031,1.1693,0.773207,0.256869,0.00968314,0.00372976,-0.0713859,0.0
374548833,0.81688,0.678523,0.780717,0.0103786,0.00315673,-0.0711798,0.0
374581638,0.734337,0.684574,0.467001,0.00991248,0.00302976,-0.0711325,0.0
374613617,-0.0606048,0.244583,-0.215236,0.0103551,0.00321215,-0.0710787,0.0
374646432,-0.371877,0.588188,-0.201207,0.010503,0.00317243,-0.0710332,0.0
374678439,1.49108,1.62552,0.326679,0.0102245,0.00247951,-0.0708924,0.0
374707245,0.608039,1.03896,0.225956,0.00973831,0.00214021,-0.0710311,0.0
374740023,0.762358,1.04363,0.332708,0.0095966,0.0016193,-0.0709404,0.0
374772006,-0.497031,0.851872,-0.409689,0.0102736,0.00102946,-0.0707283,0.0
374800840,0.205448,0.905328,0.303567,0.0102782,0.000460963,-0.0709171,0.0
374833637,-0.089813,1.0134,0.176055,0.0103682,-0.000269342,-0.0709664,0.0
374865636,-1.20968,0.838282,-0.00558273,0.0102082,-0.000681928,-0.0707815,0.0
374898433,0.642058,0.517204,0.710586,0.0105619,-0.00142696,-0.0711389,0.0
374927174,-1.19668,0.654826,0.201351,0.0108981,-0.00195639,-0.0717998,0.0
374960050,-0.109437,0.324069,0.383036,0.0109567,-0.00212441,-0.0717854,0.0
374992039,-1.02557,0.509911,-0.352611,0.0105867,-0.00211638,-0.0717854,0.0
375024837,-0.645399,0.399813,0.121824,0.00990074,-0.00211638,-0.0716577,0.0
375057618,0.22402,0.779085,0.454915,0.00971099,-0.00243523,-0.0712874,0.0
375089616,-0.653793,0.595128,-0.0984462,0.00957743,-0.00334656,-0.0716048,0.0
375122392,-0.931221,-0.0180354,0.648785,0.00955049,-0.00364189,-0.071266,0.0
375151202,-0.859462,0.520276,-0.267774,0.00998417,-0.00407096,-0.0710014,0.0
375183232,0.217625,0.00494805,0.0812296,0.00968167,-0.00381414,-0.0707804,0.0
375216038,1.16092,0.273956,0.986485,0.00956305,-0.00407537,-0.0711614,0.0
375248824,-0.29169,0.0445199,-0.886493,0.00950722,-0.00428528,-0.0718664,0.0
375281633,0.335788,0.57847,1.10363,0.00950722,-0.00472514,-0.0718664,0.0
375313635,0.607127,0.0473686,-0.309033,0.00950722,-0.00472514,-0.0718664,0.0
375346423,0.16717,0.344273,0.159062,0.00950722,-0.00472514,-0.0718664,0.0
375375240,0.320892,-0.0818044,0.0479594,0.00950722,-0.00472514,-0.0718664,0.0
375407232,-0.843913,0.0355657,-0.0120929,0.00950722,-0.00472514,-0.0718664,0.0
375439996,-0.584261,0.627431,0.39677,0.00950722,-0.00472514,-0.0718664,0.0
375472786,-0.941526,0.485481,-0.194518,0.00950722,-0.00472514,-0.0718664,0.0
375500821,0.0217253,0.470524,0.144763,0.00950722,-0.00472514,-0.0718664,0.0
375533626,-1.54107,0.437031,-0.0599278,0.00950722,-0.00472514,-0.0718664,0.0
375566433,0.267976,-0.335103,0.228302,0.00950722,-0.00472514,-0.0718664,0.0
375598437,-0.436481,0.235764,-0.0307925,0.00950722,-0.00472514,-0.0718664,0.0
375627199,0.573785,0.146843,-0.132126,0.00950722,-0.00472514,-0.0718664,0.0
375660021,-0.22089,0.160146,-0.0186027,0.00950722,-0.00472514,-0.0718664,0.0
375692023,0.436795,0.218835,0.30746,0.00950722,-0.00472514,-0.0718664,0.0
375724818,-0.988755,0.249314,0.0851247,0.00950722,-0.00472514,-0.0718664,0.0
375753638,-0.274439,-0.375491,-0.182868,0.00950722,-0.00472514,-0.0718664,0.0
375785625,-0.26551,0.0963846,0.10746,0.00950722,-0.00472514,-0.0718664,0.0
375818406,1.16457,-0.0400987,0.699318,0.00950722,-0.00472514,-0.0718664,0.0
375851228,-0.644516,-0.528551,-0.781694,0.00950722,-0.00472514,-0.0718664,0.0
375880032,1.12921,-0.381254,0.0764734,0.00950722,-0.00472514,-0.0718664,0.0
375912038,-0.562367,0.276684,0.690301,0.00950722,-0.00472514,-0.0718664,0.0
375944828,1.92051,-0.213645,0.89232,0.00950722,-0.00472514,-0.0718664,0.0
375972839,-0.0636936,0.368313,0.374142,0.00950722,-0.00472514,-0.0718664,0.0
376005633,-0.901434,0.349991,0.418144,0.00950722,-0.00472514,-0.0718664,0.0
376038425,-0.131338,-0.00109935,-0.572821,0.00950722,-0.00472514,-0.0718664,0.0
376071232,-0.499433,0.510595,0.239805,0.00950722,-0.00472514,-0.0718664,0.0
376103237,1.14309,-0.21975,-0.15109,0.00950722,-0.00472514,-0.0718664,0.0
376131977,-0.446953,0.106315,0.958436,0.00950722,-0.00472514,-0.0718664,0.0
376164833,-0.3576,-0.0222508,0.145105,0.00950722,-0.00472514,-0.0718664,0.0
376196838,-0.278735,0.0972965,0.660525,0.00950722,-0.00472514,-0.0718664,0.0
376225635,-0.698911,-0.0642311,-0.142424,0.00950722,-0.00472514,-0.0718664,0.0
376258434,-0.456616,0.466826,0.693158,0.00950722,-0.00472514,-0.0718664,0.0
376290426,0.309307,-0.883357,-0.0492748,0.00950722,-0.00472514,-0.0718664,0.0
376323246,-0.25058,-0.0757464,0.777669,0.00950722,-0.00472514,-0.0718664,0.0
376352028,-0.0755025,0.347226,0.514162,0.00950722,-0.00472514,-0.0718664,0.0
376384020,2.12743,0.301177,0.870272,0.00950722,-0.00472514,-0.0718664,0.0
376416817,0.316797,-0.241507,0.333885,0.00950722,-0.00472514,-0.0718664,0.0
376449595,1.87877,0.0498841,0.939174,0.00950722,-0.00472514,-0.0718664,0.0
376477641,-1.35781,0.184281,0.196108,0.00950722,-0.00472514,-0.0718664,0.0
376510429,0.585979,0.388736,0.392154,0.00950722,-0.00472514,-0.0718664,0.0
376543220,-1.11228,0.357095,-0.55931,0.00950722,-0.00472514,-0.0718664,0.0
376572033,-1.3324,0.926634,0.27796,0.00950722,-0.00472514,-0.0718664,0.0
376604034,-0.943657,0.550836,0.154515,0.00950722,-0.00472514,-0.0718664,0.0
376636830,-1.05062,-0.056377,0.356459,0.00950722,-0.00472514,-0.0718664,0.0
376669613,-0.509848,0.48192,0.801686,0.00950722,-0.00472514,-0.0718664,0.0
376701634,-0.666803,-0.33079,-0.702747,0.00950722,-0.00472514,-0.0718664,0.0
376730425,1.1442,-0.0811795,0.102579,0.00950722,-0.00472514,-0.0718664,0.0
376763203,0.908845,-0.428685,-0.368434,0.00950722,-0.00472514,-0.0718664,0.0
376795171,0.0967806,-0.2598,0.101979,0.00950722,-0.00472514,-0.0718664,0.0
376824042,-1.8544,0.112444,-0.390747,0.00950722,-0.00472514,-0.0718664,0.0
376856814,0.76092,-0.585566,0.52178,0.00950722,-0.00472514,-0.0718664,0.0
376889638,1.90757,-0.305039,-0.00492442,0.00950722,-0.00472514,-0.0718664,0.0
376921628,0.226183,-0.424101,-0.393269,0.00950722,-0.00472514,-0.0718664,0.0
376950439,0.0442739,0.856316,0.258651,0.00950722,-0.00472514,-0.0718664,0.0
376982440,-0.74882,-0.640856,-0.42941,0.00950722,-0.00472514,-0.0718664,0.0
377015237,1.31482,-1.18588,-0.201728,0.00950722,-0.00472514,-0.0718664,0.0
377048022,-0.216868,0.580388,-0.00195511,0.00950722,-0.00472514,-0.0718664,0.0
377080022,1.95693,-0.606192,1.01269,0.00950722,-0.00472514,-0.0718664,0.0
377112823,-1.02253,0.438787,-0.571776,0.00950722,-0.00472514,-0.0718664,0.0
377145644,0.235793,-1.39653,-1.10614,0.00950722,-0.00472514,-0.0718664,0.0
377173635,0.978348,-1.38469,-0.204222,0.00950722,-0.00472514,-0.0718664,0.0
377206441,-0.53284,0.00421337,-0.401665,0.00950722,-0.00472514,-0.0718664,0.0
377239313,0.96652,0.163881,0.364301,0.00950722,-0.00472514,-0.0718664,0.0
377272026,0.868781,-0.598454,0.0954267,0.00950722,-0.00472514,-0.0718664,0.0
377304031,-0.159939,-0.168725,0.045674,0.00950722,-0.00472514,-0.0718664,0.0
377336833,1.5042,0.0270391,0.932675,0.00950722,-0.00472514,-0.0718664,0.0
377369618,-1.30821,0.0771801,-0.377993,0.00950722,-0.00472514,-0.0718664,0.0
377401620,-0.459816,0.735495,0.154329,0.00950722,-0.00472514,-0.0718664,0.0
377430436,0.165389,-0.295347,-0.585847,0.00950722,-0.00472514,-0.0718664,0.0
377463191,0.890566,0.601837,0.176055,0.00950722,-0.00472514,-0.0718664,0.0
377495243,0.203247,-0.110002,-0.709491,0.00950722,-0.00472514,-0.0718664,0.0
377524026,0.191788,0.402408,0.213836,0.00950722,-0.00472514,-0.0718664,0.0
377556835,-0.412054,-0.357647,-0.506221,0.00950722,-0.00472514,-0.0718664,0.0
377589618,-0.585262,-0.28126,0.372652,0.00950722,-0.00472514,-0.0718664,0.0
377621628,-0.326046,0.772402,0.176106,0.00950722,-0.00472514,-0.0718664,0.0
377650432,0.907037,0.645085,0.319298,0.00950722,-0.00472514,-0.0718664,0.0
377682424,1.32101,-0.869356,-0.734818,0.00950722,-0.00472514,-0.0718664,0.0
377715222,-1.23538,0.711831,-0.0180342,0.00950722,-0.00472514,-0.0718664,0.0
377748019,0.193292,0.236717,0.23037,0.00950722,-0.00472514,-0.0718664,0.0
377776839,1.71085,0.391703,0.663622,0.00950722,-0.00472514,-0.0718664,0.0
377808842,0.78567,-0.445849,0.0705495,0.00950722,-0.00472514,-0.0718664,0.0
377841613,-0.490346,-0.293896,-0.376842,0.00950722,-0.00472514,-0.0718664,0.0
377870439,-0.754652,-0.672266,-0.147268,0.00950722,-0.00472514,-0.0718664,0.0
377902435,0.16693,-0.193907,0.386397,0.00950722,-0.00472514,-0.0718664,0.0
377935236,-0.208889,-0.277545,-0.490103,0.00950722,-0.00472514,-0.0718664,0.0
377968028,-0.665464,-0.637491,-0.434542,0.00950722,-0.00472514,-0.0718664,0.0
378000042,1.52703,-0.460052,0.43417,0.00950722,-0.00472514,-0.0718664,0.0
378032826,-0.68547,0.484377,0.339245,0.00950722,-0.00472514,-0.0718664,0.0
378065616,-0.220306,-0.225434,0.806517,0.00950722,-0.00472514,-0.0718664,0.0
378097602,-1.5604,0.6572,-0.630753,0.00950722,-0.00472514,-0.0718664,0.0
378126408,-0.704044,0.567574,-0.0870246,0.00950722,-0.00472514,-0.0718664,0.0
378159296,0.199104,-0.243169,-0.305302,0.00950722,-0.00472514,-0.0718664,0.0
378192046,-0.574877,0.691302,0.17923,0.00950722,-0.00472514,-0.0718664,0.0
378224037,-0.441039,0.170801,-0.479399,0.00956096,-0.00472514,-0.0718664,0.0
378252843,-0.315223,0.187671,-0.146958,0.00880441,-0.00471121,-0.0718664,0.0
378285638,1.68999,-0.0540979,-0.176489,0.00844248,-0.00471121,-0.0718664,0.0
378317627,0.182007,0.0562536,-0.532646,0.00844248,-0.00471121,-0.0718664,0.0
378346449,-0.230484,0.329438,0.0288793,0.00837274,-0.00482274,-0.0722552,0.0
378379272,0.146533,-0.184984,-0.367014,0.00837274,-0.00482274,-0.0722552,0.0
378411213,-1.24272,0.349836,-0.655206,0.00837274,-0.00482274,-0.0722552,0.0
378444036,-2.17554,-0.593271,-0.797166,0.00837274,-0.00482274,-0.0722552,0.0
378472790,-0.533416,0.736361,-0.322409,0.00837274,-0.00482274,-0.0722552,0.0
378504841,0.286228,-0.301945,-0.774932,0.00837274,-0.00482274,-0.0722552,0.0
378537637,0.338841,-0.0429049,0.172704,0.00837274,-0.00482274,-0.0722552,0.0
378570419,0.278673,-0.0287283,0.0321852,0.00834128,-0.00498097,-0.0727694,0.0
378598438,-0.606988,-0.0459606,-0.134851,0.00806529,-0.00505441,-0.073103,0.0
378631240,-0.224168,0.162367,0.104507,0.0079924,-0.00505441,-0.0731019,0.0
378664037,0.61408,0.274188,-0.216727,0.00789782,-0.00555773,-0.0731019,0.0
378696038,-0.720596,0.17766,-0.657626,0.00772107,-0.00547029,-0.0731019,0.0
378724827,-0.520724,0.0124198,0.0197483,0.00762566,-0.00518342,-0.0731019,0.0
378757633,0.516803,0.103202,-0.209253,0.00713933,-0.00518342,-0.0731019,0.0
378789645,-0.90593,0.448923,-0.773225,0.00713933,-0.00518342,-0.0731019,0.0
378822443,0.0463792,0.330226,-0.0549767,0.00713933,-0.00518342,-0.0731019,0.0
378851236,0.167828,0.18398,-1.07275,0.00713933,-0.00518342,-0.0731019,0.0
378884020,0.067727,-0.773198,-0.608498,0.00713933,-0.00518342,-0.0731019,0.0
378916026,0.815456,-0.30467,-0.105241,0.00713933,-0.00518342,-0.0731019,0.0
378944833,-0.598134,-0.166842,-0.707931,0.00713933,-0.00518342,-0.0731019,0.0
378977631,-1.33705,-0.466152,-0.276258,0.00713933,-0.00518342,-0.0731019,0.0
379009631,0.0636813,-0.19517,-0.0946595,0.00713933,-0.00518342,-0.0731019,0.0
379042397,-0.293124,0.175017,-0.606382,0.00713933,-0.00518342,-0.0731019,0.0
379071209,1.11446,-0.0546833,0.401256,0.00713933,-0.00518342,-0.0731019,0.0
379103230,-0.527233,0.0861748,-0.257338,0.00713933,-0.00518342,-0.0731019,0.0
379136004,0.252463,0.160519,0.159809,0.00713933,-0.00518342,-0.0731019,0.0
379168838,0.116705,0.443982,-0.209365,0.00713933,-0.00518342,-0.0731019,0.0
379196836,1.44163,-0.0463768,0.368634,0.00713933,-0.00518342,-0.0731019,0.0
379229629,0.95006,0.0163695,-0.211971,0.00713933,-0.00518342,-0.0731019,0.0
379262405,1.0657,-0.204654,0.0432557,0.00713933,-0.00518342,-0.0731019,0.0
379294426,1.77519,0.360015,0.0618752,0.00713933,-0.00518342,-0.0731019,0.0
379323196,-1.3336,0.0165781,-0.189043,0.00713933,-0.00518342,-0.0731019,0.0
379356003,1.06098,0.191391,0.337335,0.00713933,-0.00518342,-0.0731019,0.0
379388025,-1.31368,-0.583331,-0.501703,0.00713933,-0.00518342,-0.0731019,0.0
379420814,-0.212673,0.379564,0.22215,0.00713933,-0.00518342,-0.0731019,0.0
379449597,-0.480242,0.0802371,-0.163212,0.00713933,-0.00518342,-0.0731019,0.0
379481592,0.835286,-0.103753,0.177378,0.00713933,-0.00518342,-0.0731019,0.0
379514396,-0.40725,-0.44784,-0.993474,0.00713933,-0.00518342,-0.0731019,0.0
379547252,1.41849,-0.576976,0.530487,0.00713933,-0.00518342,-0.0731019,0.0
379576026,-0.478527,-0.360435,-0.212417,0.00713933,-0.00518342,-0.0731019,0.0
379608017,0.490757,0.286299,0.529266,0.00713933,-0.00518342,-0.0731019,0.0
379640832,0.134208,-0.741842,-0.726669,0.00713933,-0.00518342,-0.0731019,0.0
379669606,1.17006,0.141635,0.420804,0.00713933,-0.00518342,-0.0731019,0.0
379701613,-1.51214,0.347928,-0.0866179,0.00713933,-0.00518342,-0.0731019,0.0
379734421,-0.293122,0.0577367,0.607262,0.00713933,-0.00518342,-0.0731019,0.0
379767178,-0.585201,1.14156,0.149006,0.00713933,-0.00518342,-0.0731019,0.0
379799252,-0.447649,-0.532364,-0.782396,0.00713933,-0.00518342,-0.0731019,0.0
379828039,1.7725,-0.129207,-0.250532,0.00713933,-0.00518342,-0.0731019,0.0
379860835,0.131269,-0.772337,-0.32715,0.00713933,-0.00518342,-0.0731019,0.0
379893630,1.27998,-0.487068,0.742807,0.00713933,-0.00518342,-0.0731019,0.0
379921622,-0.488341,-0.204916,-0.768344,0.00713933,-0.00518342,-0.0731019,0.0
379954440,-0.154674,0.0558731,0.667473,0.00713933,-0.00518342,-0.0731019,0.0
379986440,-0.125911,0.173961,-0.167506,0.00688765,-0.00518342,-0.0730872,0.0
380019289,-0.419795,-0.298207,-0.541872,0.00688765,-0.00506439,-0.073079,0.0
380048024,-0.123376,0.669517,0.0259316,0.00656807,-0.00523583,-0.0735023,0.0
380080015,-0.697923,0.095938,-0.622972,0.00640002,-0.00523601,-0.0735023,0.0
380112819,-0.154835,-1.81109,-0.4808,0.00593138,-0.00533042,-0.0733942,0.0
380145635,-0.174979,-0.174523,0.212073,0.00528267,-0.00557777,-0.0733837,0.0
380177622,-0.171145,-0.179608,0.149081,0.00477923,-0.00567525,-0.0733837,0.0
380210435,1.05615,-0.558025,-0.526823,0.00442496,-0.00566931,-0.0732575,0.0
380243245,-0.00674633,-0.221347,-0.121406,0.00467546,-0.00579608,-0.0737963,0.0
380272030,0.0581454,0.653588,-0.384509,0.00474675,-0.00595422,-0.0739487,0.0
380304034,0.462742,-0.000392854,-0.487185,0.00500731,-0.00612341,-0.0740851,0.0
380336812,0.0566189,0.757305,-0.0730007,0.00463768,-0.00629316,-0.0741829,0.0
380369618,-0.684442,0.152811,0.119189,0.00463768,-0.00629316,-0.0741829,0.0
380401619,-0.70558,0.522312,-0.448492,0.00463768,-0.00629316,-0.0741829,0.0
380434443,-1.43895,-0.0275246,-0.0390539,0.00513851,-0.00635815,-0.0742754,0.0
380467253,1.03089,-0.581312,0.189273,0.00465081,-0.00669117,-0.0745929,0.0
380499259,0.66366,-0.0979811,0.0955739,0.00427055,-0.00657395,-0.0745364,0.0
380528030,-0.352398,0.161726,0.527347,0.00415897,-0.00657395,-0.0745364,0.0
380560836,0.840294,-0.615281,0.104638,0.00373349,-0.00655055,-0.0749046,0.0
380593638,0.395617,-0.894085,-0.443527,0.00373349,-0.00655055,-0.0749046,0.0
380621635,0.646206,0.350522,0.135642,0.00373349,-0.00655055,-0.0749046,0.0
380654413,-0.361772,0.239568,-0.397143,0.00373349,-0.00655055,-0.0749046,0.0
380687216,0.052329,-0.198835,0.396704,0.00373349,-0.00655055,-0.0749046,0.0
380719272,-0.602792,0.585329,-0.150566,0.00373349,-0.00655055,-0.0749046,0.0
380747999,-0.079743,0.124154,0.384795,0.00373349,-0.00655055,-0.0749046,0.0
380780842,-0.705646,1.56839,0.00753365,0.00373349,-0.00655055,-0.0749046,0.0
380812850,-0.316245,1.46949,0.0639764,0.00373349,-0.00655055,-0.0749046,0.0
380845640,-0.0311422,1.28807,0.387063,0.00373349,-0.00655055,-0.0749046,0.0
380878434,-0.101855,1.50687,-0.68763,0.00373349,-0.00655055,-0.0749046,0.0
380911220,-0.207115,1.50809,0.257486,0.00373349,-0.00655055,-0.0749046,0.0
380943240,1.24437,0.848181,0.342298,0.00373349,-0.00655055,-0.0749046,0.0
380972025,0.0148714,1.14277,0.262096,0.00373349,-0.00655055,-0.0749046,0.0
381004045,0.982661,0.29991,-0.0995695,0.00373349,-0.00655055,-0.0749046,0.0
381036823,-0.172009,0.548564,-0.00223907,0.00373349,-0.00655055,-0.0749046,0.0
381069628,0.500406,1.27201,0.58252,0.00373349,-0.00655055,-0.0749046,0.0
381102400,0.854721,0.504458,-0.38443,0.00373349,-0.00655055,-0.0749046,0.0
381134441,0.465587,-0.0802064,-0.115755,0.00373349,-0.00655055,-0.0749046,0.0
381167226,0.16421,0.535252,0.4431,0.00373349,-0.00655055,-0.0749046,0.0
381196033,-0.192954,-0.0463835,-0.352527,0.00373349,-0.00655055,-0.0749046,0.0
381227996,-0.781917,0.212098,0.374385,0.00373349,-0.00655055,-0.0749046,0.0
381260845,0.2277,0.210967,0.208549,0.00373349,-0.00655055,-0.0749046,0.0
381293638,-0.713743,1.02308,-0.0276948,0.00373349,-0.00655055,-0.0749046,0.0
381321615,-0.369616,-0.447593,0.0599705,0.00373349,-0.00655055,-0.0749046,0.0
381354433,1.18496,-0.206447,0.447647,0.00373349,-0.00655055,-0.0749046,0.0
381387225,0.17435,-0.379493,-0.242219,0.00316286,-0.00655055,-0.0752762,0.0
381419255,-0.100958,-0.926489,-0.0758297,0.00270303,-0.00655055,-0.0751661,0.0
381447993,0.395803,-0.515706,0.193091,0.00273953,-0.00757033,-0.0755413,0.0
381480819,0.326954,-0.914004,0.25027,0.0028558,-0.00890938,-0.0760217,0.0
381513629,-0.674506,-0.633999,-0.483549,0.00296478,-0.00960946,-0.0763894,0.0
381545630,-1.00056,-1.20845,-0.196896,0.00286878,-0.00948569,-0.07627,0.0
381578450,-1.601,-0.732224,-0.408229,0.00353271,-0.0102166,-0.076471,0.0
381611243,0.324853,-0.758412,0.333582,0.0030255,-0.0109798,-0.0767766,0.0
381643246,-0.293677,-0.0871337,0.211547,0.00246158,-0.0115077,-0.077057,0.0
381672038,0.3262,-0.668053,-0.517347,0.00242197,-0.0117485,-0.0767397,0.0
381704823,-0.990628,-0.642181,-0.200069,0.00242587,-0.0117434,-0.0767376,0.0
381736787,0.257643,-0.505992,0.228907,0.00295659,-0.011739,-0.0768327,0.0
381769594,1.23617,0.0144151,0.707757,0.00280904,-0.0119033,-0.0763182,0.0
381798425,0.405989,-0.0421406,-0.10811,0.00293168,-0.0122739,-0.0757377,0.0
381830444,1.03391,-0.120264,0.244534,0.00252921,-0.0124905,-0.0756852,0.0
381863232,-0.0725176,0.299553,0.223502,0.0025622,-0.0126509,-0.0755873,0.0
381892047,0.102643,0.282725,0.169182,0.0022887,-0.0126033,-0.0751532,0.0
381924005,-0.288263,0.190523,0.0729591,0.00279852,-0.0122722,-0.0746545,0.0
381956832,-0.222069,-0.0748366,-0.201945,0.00271191,-0.0123917,-0.0748703,0.0
381989635,-0.447867,0.0183538,0.388938,0.00271191,-0.0123917,-0.0748703,0.0
382022429,1.19954,0.205105,0.344219,0.00271191,-0.0123917,-0.0748703,0.0
382054402,0.197552,0.488402,0.240791,0.00271191,-0.0123917,-0.0748703,0.0
382087190,0.591633,0.456676,0.169102,0.00271191,-0.0123917,-0.0748703,0.0
382115194,1.17155,0.169583,0.253445,0.00271191,-0.0123917,-0.0748703,0.0
382147998,0.253547,0.0915919,0.614831,0.00271191,-0.0123917,-0.0748703,0.0
382180833,-0.0396648,0.230558,0.178123,0.00271191,-0.0123917,-0.0748703,0.0
382213611,-0.284173,-0.11243,0.559519,0.00271191,-0.0123917,-0.0748703,0.0
382245640,-0.162632,-0.201271,-0.0246944,0.00271191,-0.0123917,-0.0748703,0.0
382274431,-0.176801,0.11279,0.401663,0.00271191,-0.0123917,-0.0748703,0.0
382307250,-0.821524,-0.302332,0.318717,0.00271191,-0.0123917,-0.0748703,0.0
382339301,0.0984748,-0.29881,0.319783,0.00271191,-0.0123917,-0.0748703,0.0
382368019,0.998661,0.452886,0.724155,0.00400916,-0.0129306,-0.074203,0.0
382400841,0.698918,0.399376,0.339551,0.00511255,-0.0143174,-0.0734775,0.0
382432835,1.26057,-0.231784,0.433774,0.0057992,-0.0149443,-0.0726391,0.0
382465622,1.74852,-0.43631,1.3446,0.0050955,-0.014774,-0.072309,0.0
382494444,1.35109,-0.609156,1.24643,0.00495456,-0.0146189,-0.0719623,0.0
382527235,0.852983,0.159635,0.375315,0.00422974,-0.0140139,-0.071569,0.0
382559309,0.448498,0.297963,1.04582,0.00369637,-0.0138252,-0.0716712,0.0
382592032,-0.20579,-0.164138,0.512324,0.0037183,-0.0137443,-0.0714329,0.0
382620020,-0.0555187,-0.0974447,0.587704,0.00385809,-0.0135988,-0.0711638,0.0
382652829,-0.939767,0.0620331,0.788678,0.0040335,-0.0136169,-0.0710561,0.0
382685614,-0.443963,0.182818,0.902308,0.00421433,-0.0139467,-0.0708952,0.0
382713614,-0.00341521,0.112857,1.12423,0.00454784,-0.0143492,-0.0709297,0.0
382746423,-1.46247,-0.075521,0.469583,0.00508642,-0.0143603,-0.0705506,0.0
382779280,0.642942,0.2963,1.50635,0.00548824,-0.0144742,-0.0709322,0.0
382812042,-1.13451,-0.111547,0.499898,0.00662228,-0.0149437,-0.071019,0.0
382844045,0.133828,-0.071653,1.14489,0.00689434,-0.0147785,-0.0716633,0.0
382872836,-0.327598,-0.0854717,1.41828,0.00729578,-0.0150946,-0.0714958,0.0
382905631,-0.308953,-0.290946,0.67408,0.00683734,-0.0149887,-0.071275,0.0
382937634,-0.323778,-0.155167,1.11326,0.00747145,-0.0153017,-0.0710139,0.0
382966436,-0.678133,-0.935976,0.188946,0.00772242,-0.0151801,-0.0704015,0.0
382999271,0.358971,-0.555758,1.47314,0.00751716,-0.0149374,-0.0705333,0.0
383031211,-0.906088,-0.220761,0.5908,0.00785145,-0.0149618,-0.0705276,0.0
383064032,-0.290048,0.0421856,1.03815,0.00785145,-0.0149618,-0.0705276,0.0
383092799,-0.70088,0.298721,0.793301,0.00785145,-0.0149618,-0.0705276,0.0
383124846,-0.208737,0.359065,0.90733,0.00785145,-0.0149618,-0.0705276,0.0
383157629,-0.7943,0.706531,1.23446,0.00785145,-0.0149618,-0.0705276,0.0
383190418,-0.700628,0.265016,0.970298,0.00785145,-0.0149618,-0.0705276,0.0
383223240,0.0171618,-0.0411377,0.835589,0.00879665,-0.015594,-0.0707953,0.0
383255241,0.547147,-0.663986,1.18509,0.00918348,-0.0158202,-0.071098,0.0
383288040,0.609573,-0.819228,0.807958,0.00951333,-0.0160537,-0.0710866,0.0
383316840,0.851888,-1.11624,0.451413,0.00910998,-0.0159357,-0.0710215,0.0
383348817,1.29727,-0.563067,1.16676,0.00924011,-0.0159159,-0.0709451,0.0
383381615,0.315295,-0.506507,0.832892,0.0090187,-0.0156495,-0.0712413,0.0
383414397,0.313092,0.0159625,1.16517,0.00912361,-0.0154364,-0.0714673,0.0
383442442,0.302835,0.133491,1.19817,0.00950942,-0.0153276,-0.0715775,0.0
383475243,0.648131,-0.0310589,1.03937,0.00974986,-0.0150919,-0.0714091,0.0
383508024,-0.00991885,0.161015,0.824777,0.00979866,-0.015216,-0.071326,0.0
383536035,-0.253997,0.231962,0.890957,0.0097965,-0.0153221,-0.071197,0.0
383568808,0.783527,0.432272,0.784208,0.00975925,-0.0155617,-0.0710274,0.0
383601637,0.0842944,0.0401372,0.553756,0.0101645,-0.0156752,-0.0710782,0.0
383633626,0.0488221,-0.189704,0.724247,0.0104544,-0.0156325,-0.0710267,0.0
383666418,0.716189,0.153648,0.872682,0.0102929,-0.0157028,-0.0709251,0.0
383695228,0.164684,0.230946,1.01866,0.0104988,-0.0161807,-0.0707386,0.0
383727220,-0.380539,-0.199037,0.662386,0.0106923,-0.0164465,-0.0705624,0.0
383760019,-0.234354,0.0603316,0.813397,0.0107951,-0.0168109,-0.070529,0.0
383788836,-0.559465,0.0628267,0.354334,0.0114767,-0.0168856,-0.0700788,0.0
383821618,0.188261,0.134197,0.878832,0.0116846,-0.0170527,-0.0699624,0.0
383853631,0.211632,0.0529918,0.979483,0.0115583,-0.0168756,-0.0698336,0.0
383886433,-0.270725,-0.435487,0.218588,0.0116881,-0.0168433,-0.0697096,0.0
383914423,-0.293886,0.0155212,0.613866,0.0117264,-0.0170746,-0.0696974,0.0
383947232,-0.980794,0.0684618,0.648945,0.0115475,-0.0172174,-0.0696129,0.0
383980022,-0.2866,0.526706,0.842002,0.0113203,-0.0175584,-0.0698475,0.0
384012814,-0.475172,0.297345,0.488051,0.0114287,-0.0177145,-0.0696115,0.0
384040818,-0.00141549,-0.0011027,0.691176,0.0115344,-0.0179839,-0.0696726,0.0
384073636,-0.905541,0.189281,0.674043,0.0115297,-0.0183223,-0.0699562,0.0
384106391,0.917588,0.433291,1.11559,0.0104412,-0.0180779,-0.0694664,0.0
384138439,-0.59094,0.292953,0.939365,0.0104412,-0.0180779,-0.0694664,0.0
384167203,-0.485696,0.441774,1.04127,0.0104412,-0.0180779,-0.0694664,0.0
384200033,-0.433217,0.577307,0.71561,0.0104412,-0.0180779,-0.0694664,0.0
384232011,-0.311024,0.650166,0.77862,0.0104412,-0.0180779,-0.0694664,0.0
384264829,0.346246,0.982408,1.18489,0.0104412,-0.0180779,-0.0694664,0.0
384293620,0.0347236,0.802856,1.07486,0.0104412,-0.0180779,-0.0694664,0.0
384325630,-0.955911,0.825616,0.87599,0.0104412,-0.0180779,-0.0694664,0.0
384358422,0.746439,-0.20137,0.979712,0.0104412,-0.0180779,-0.0694664,0.0
384391192,-0.230558,0.251165,1.13693,0.0105926,-0.0196349,-0.0694664,0.0
384419279,-0.314567,-1.38778,0.891039,0.010706,-0.0200189,-0.0695497,0.0
384451989,0.272263,-1.35071,1.00417,0.0107401,-0.0199493,-0.0698158,0.0
384484834,0.798805,-1.03888,0.903078,0.0101313,-0.019493,-0.0697811,0.0
384513632,0.219946,-1.00884,0.327263,0.00965697,-0.0193187,-0.0698549,0.0
384545614,0.128892,-1.36278,0.477458,0.00905845,-0.0193836,-0.0698417,0.0
384578441,0.097809,-0.810907,1.16717,0.0086369,-0.0196191,-0.0698847,0.0
384611221,-1.39491,-0.760896,0.648544,0.00883351,-0.0195037,-0.069737,0.0
384643201,1.3431,0.0945924,1.20051,0.00929902,-0.0197599,-0.0689719,0.0
384672022,0.107893,-0.204015,0.693913,0.00958246,-0.019697,-0.0690411,0.0
384704841,0.153499,-0.658617,0.411601,0.00920015,-0.0196945,-0.0694544,0.0
384736824,-0.514232,-0.265588,0.924744,0.00936044,-0.0202297,-0.0701952,0.0
384765637,-0.128474,-0.159875,0.614906,0.00941285,-0.0205681,-0.0704563,0.0
384798442,0.182613,-0.604046,0.344088,0.00939024,-0.0212059,-0.0708709,0.0
384830435,0.440114,-1.02622,0.730459,0.00857606,-0.0211735,-0.0707655,0.0
384863224,0.092819,-0.95689,0.375427,0.00854921,-0.0217009,-0.0715307,0.0
384892031,-0.330845,-0.714684,0.619567,0.00804674,-0.0217247,-0.0722475,0.0
384924031,0.726418,-1.08151,0.548581,0.00756023,-0.0215984,-0.0722012,0.0
384956839,0.319445,-0.382672,0.297613,0.00769356,-0.0217719,-0.0724555,0.0
384989629,0.53928,-1.04263,0.356099,0.00781176,-0.0211712,-0.0731879,0.0
385017625,0.253625,-0.573892,0.58395,0.00824079,-0.0211957,-0.0729224,0.0
385050427,0.355042,-0.169991,0.969458,0.00816762,-0.0205524,-0.0733522,0.0
385083191,0.251825,0.467657,0.258457,0.00835521,-0.0195955,-0.0738563,0.0
385115184,-0.554899,-0.015395,-0.00340931,0.00855485,-0.0191133,-0.0744495,0.0
385144029,0.580739,0.701736,0.24177,0.00794638,-0.0187751,-0.0743187,0.0
385176820,0.229677,1.4232,0.36594,0.00778305,-0.0190266,-0.0746338,0.0
385209628,0.701617,0.86111,-0.00371741,0.00754145,-0.0191997,-0.0751633,0.0
385241648,-0.397697,0.58724,-0.0662899,0.00766427,-0.0188437,-0.0751595,0.0
385270439,0.137436,0.774541,0.428186,0.00795723,-0.0190015,-0.0756925,0.0
385302436,0.975333,1.38109,0.176859,0.00777017,-0.0194635,-0.0759287,0.0
385335234,0.239547,0.623159,-0.111764,0.00775995,-0.0199098,-0.0763923,0.0
385364019,0.727686,0.646943,0.390883,0.00779337,-0.0201325,-0.0765656,0.0
385396839,0.0366055,0.447978,0.450758,0.00772092,-0.0202717,-0.076812,0.0
385428823,-0.17373,0.894337,0.152634,0.00768759,-0.0204723,-0.0767974,0.0
385461628,0.313335,0.939487,0.0100656,0.00758232,-0.0207631,-0.0771964,0.0
385490423,-1.05362,0.106592,-0.0769936,0.00710072,-0.0207347,-0.0769246,0.0
385522442,0.086257,-0.0880206,-0.188671,0.00707765,-0.021042,-0.0769447,0.0
385555243,1.18019,0.233994,0.721817,0.00706122,-0.0213925,-0.0775159,0.0
385588043,0.276939,-0.156243,0.334581,0.00689902,-0.0216774,-0.0776361,0.0
385616046,0.908844,-0.642308,-0.182827,0.00641123,-0.0217265,-0.0776604,0.0
385648832,-0.0421275,-0.603371,0.0338435,0.00605947,-0.021961,-0.0780221,0.0
385681617,-1.09085,-0.179446,0.608823,0.00548334,-0.0221158,-0.0781503,0.0
385713615,1.33174,-0.114579,0.348799,0.00455579,-0.0218473,-0.0779478,0.0
385742384,-0.503328,0.115981,-0.494349,0.00444,-0.0218473,-0.0776241,0.0
385775245,0.642402,-0.193257,0.297447,0.00338068,-0.0219576,-0.0780387,0.0
385807196,0.2853,0.413887,0.269747,0.00292662,-0.022345,-0.078639,0.0
385840051,0.580898,0.717501,-0.419653,0.00251256,-0.022584,-0.078719,0.0
385868838,0.0412019,0.1623,0.376057,0.00333897,-0.0227141,-0.0787541,0.0
385901636,0.886759,0.498849,0.237601,0.00295347,-0.0229194,-0.0789607,0.0
385933632,-0.327089,0.78536,0.0786057,0.00274257,-0.0234818,-0.078982,0.0
385962438,-0.19217,-0.0382549,-0.158622,0.00263649,-0.0237384,-0.0789437,0.0
385994439,0.65324,0.307224,0.601704,0.00246242,-0.0239795,-0.0787165,0.0
386027216,0.220979,0.120481,-0.029712,0.00253997,-0.0240467,-0.0793881,0.0
386060020,-1.24435,-0.757732,-0.205632,0.00271341,-0.023847,-0.0792385,0.0
386088816,0.320574,0.0985224,-0.13362,0.00226736,-0.0238813,-0.0795732,0.0
386120797,0.398801,-0.321493,-0.234942,0.00237273,-0.0239642,-0.0800243,0.0
386153630,-1.03702,-0.110382,-0.0410046,0.00275847,-0.0239854,-0.0799274,0.0
386186434,0.0473977,0.560908,0.141391,0.00245604,-0.0241353,-0.0802323,0.0
386218436,-1.10389,-0.0891085,-0.526488,0.00195504,-0.024101,-0.0801271,0.0
386251240,0.284666,-0.164902,0.0876408,0.00195504,-0.024101,-0.0801271,0.0
386284036,1.20714,-0.519753,0.76076,0.00195504,-0.024101,-0.0801271,0.0
386316016,-0.179307,0.144146,-0.280329,0.00195504,-0.024101,-0.0801271,0.0
386344825,1.21417,-0.245148,0.453745,0.00195504,-0.024101,-0.0801271,0.0
386377633,0.386982,0.311658,-0.281342,0.00195319,-0.0242836,-0.080343,0.0
386409626,1.29501,-0.638906,0.0394023,0.00195319,-0.0243063,-0.080343,0.0
386442397,-0.241612,-0.0519879,0.170772,0.00195319,-0.0243063,-0.080343,0.0
386475221,-0.238884,0.921854,0.054432,0.00195319,-0.0243063,-0.080343,0.0
386508028,0.603068,-0.660495,-0.13681,0.00195319,-0.0243063,-0.080343,0.0
386536030,0.684377,-0.390814,0.570387,0.00195319,-0.0243063,-0.080343,0.0
386568840,-0.71232,-0.2119,-0.169041,0.00195319,-0.0243063,-0.080343,0.0
386601636,-0.666627,0.247403,0.295913,0.00195319,-0.0243063,-0.080343,0.0
386633627,1.36016,0.232476,0.0516169,0.00195319,-0.0243063,-0.080343,0.0
386662421,0.934725,-0.494489,0.516261,0.00195319,-0.0243063,-0.080343,0.0
386695217,-0.0666897,0.705578,0.347417,0.00195319,-0.0243063,-0.080343,0.0
386727210,0.499601,-0.966896,-0.639895,0.00195319,-0.0243063,-0.080343,0.0
386759994,-0.256667,0.373192,0.341592,0.00195319,-0.0243063,-0.080343,0.0
386788795,0.0976834,-0.101124,-0.171108,0.00195319,-0.0243063,-0.080343,0.0
386821635,-0.179557,0.650164,0.458394,0.00195319,-0.0243063,-0.080343,0.0
386853630,1.23051,-0.123901,0.175093,0.00195319,-0.0243063,-0.080343,0.0
386886425,-0.0761178,-0.475573,-0.228823,0.00195319,-0.0243063,-0.080343,0.0
386919292,0.402116,0.386518,0.386828,0.00195319,-0.0243063,-0.080343,0.0
386951249,-0.595038,0.308064,-0.481949,0.00195319,-0.0243063,-0.080343,0.0
386984018,-0.169309,-0.436451,0.0110355,0.00195319,-0.0243063,-0.080343,0.0
387016814,-0.401618,0.239983,0.162702,0.00195319,-0.0243063,-0.080343,0.0
387048813,0.00434113,0.685907,-0.103796,0.00176514,-0.024264,-0.0802848,0.0
387081599,-0.737731,0.295081,-0.377746,0.0010555,-0.0243852,-0.0809674,0.0
387110426,0.249526,0.654347,0.60163,0.000623153,-0.0243852,-0.0809674,0.0
387142382,-0.735764,-0.182814,-0.500148,0.000791563,-0.0246374,-0.0811568,0.0
387175256,0.518804,-0.802865,-0.691133,0.000334336,-0.0246151,-0.0813991,0.0
387208022,-0.610721,-0.37963,-0.266963,0.000174347,-0.0246181,-0.081792,0.0
387240838,0.0254518,0.128339,0.135202,0.000702647,-0.0250298,-0.0824011,0.0
387272831,0.0969243,0.0746595,-0.177041,0.000607812,-0.024841,-0.0821429,0.0
387305612,-0.498454,0.145551,-0.511889,0.00120483,-0.0252186,-0.0820462,0.0
387334422,0.587169,0.460028,0.398623,0.000345547,-0.0250503,-0.0815471,0.0
387366425,-0.2749,0.129479,-0.641244,-0.000436574,-0.0249939,-0.0811592,0.0
387399252,1.44873,-0.698248,0.220389,-0.0012661,-0.0247685,-0.0809207,0.0
387432031,1.24941,-0.0421253,0.820334,-0.00217657,-0.0246469,-0.0807148,0.0
387463996,-1.34063,0.0991241,-0.394837,-0.00189937,-0.025056,-0.0808949,0.0
387492835,0.574978,0.299464,0.313788,-0.00242572,-0.0251611,-0.0814764,0.0
387525636,-0.240718,0.745364,0.000278076,-0.00266279,-0.0250868,-0.0814764,0.0
387557623,0.236835,-0.218067,-0.0230487,-0.00373492,-0.0253965,-0.0819154,0.0
387586438,-0.809988,0.492889,0.442021,-0.00381443,-0.0253576,-0.0818967,0.0
387619270,0.971021,-0.156856,-0.116,-0.00443509,-0.0254502,-0.0817347,0.0
387651239,-0.309489,-0.126034,-0.0216862,-0.00467074,-0.0253602,-0.0817347,0.0
387684016,-0.184944,0.590545,0.209748,-0.00497006,-0.0254464,-0.0817347,0.0
387712812,-0.930425,0.186611,-0.265327,-0.00514714,-0.0253756,-0.0820388,0.0
387745637,-0.658254,0.421821,-0.0265092,-0.00514714,-0.0256673,-0.0820388,0.0
387777627,0.485,0.284822,0.672906,-0.00487002,-0.0256673,-0.0820388,0.0
387810434,-0.234319,0.446437,-0.308513,-0.00504427,-0.0258707,-0.0820378,0.0
387839293,-1.22731,-0.190608,0.0235785,-0.00458114,-0.0259354,-0.0823358,0.0
387871243,0.902559,-0.257114,-0.121144,-0.00483428,-0.0261438,-0.0824784,0.0
387904034,0.243138,-0.697864,-0.175612,-0.00483428,-0.0261438,-0.0824784,0.0
387936791,-0.780957,0.416161,-0.0757701,-0.00483428,-0.0261438,-0.0824784,0.0
387964810,-0.812572,0.227759,-0.554508,-0.00483428,-0.0261438,-0.0824784,0.0
387997618,0.268129,0.0388571,0.240544,-0.00483428,-0.0261438,-0.0824784,0.0
388030437,1.22436,0.0694778,0.466772,-0.00483428,-0.0263375,-0.0824784,0.0
388062420,-0.298555,0.200709,-0.480984,-0.00483428,-0.0263375,-0.0824784,0.0
388091180,-0.170644,0.586098,0.045074,-0.0050522,-0.02639,-0.0827734,0.0
388124039,0.000913728,-0.509392,-0.161889,-0.0050522,-0.02639,-0.0827734,0.0
388156031,0.627484,-0.310356,0.312791,-0.0050522,-0.02639,-0.0827734,0.0
388184841,-1.19882,0.298937,-0.667531,-0.0050522,-0.02639,-0.0827734,0.0
388217634,-0.348849,-0.395391,0.168667,-0.0050522,-0.02639,-0.0827734,0.0
388249630,-0.145257,0.250086,0.176403,-0.0050522,-0.02639,-0.0827734,0.0
388282440,-1.2732,0.264525,-0.573426,-0.0050522,-0.02639,-0.0827734,0.0
388311236,-0.0288638,0.661447,0.25216,-0.0050522,-0.02639,-0.0827734,0.0
388343212,0.382569,-0.573833,-0.343617,-0.0050522,-0.02639,-0.0827734,0.0
388376019,-1.66618,0.316832,0.222232,-0.0050522,-0.02639,-0.0827734,0.0
388408834,0.478139,0.475472,0.256498,-0.0050522,-0.02639,-0.0827734,0.0
388436842,0.270516,-0.0400162,0.480666,-0.0050522,-0.02639,-0.0827734,0.0
388469634,0.334506,0.0593155,0.619183,-0.0050522,-0.02639,-0.0827734,0.0
388502419,-1.23339,0.605398,-0.411429,-0.0050522,-0.02639,-0.0827734,0.0
388535196,-1.72614,-0.222477,-0.416253,-0.0050522,-0.02639,-0.0827734,0.0
388563195,-0.667586,0.106953,-0.0943442,-0.0050522,-0.02639,-0.0827734,0.0
388596036,0.371154,-0.155189,-0.0970493,-0.0050522,-0.02639,-0.0827734,0.0
388628823,1.3202,-0.557214,0.479353,-0.0050522,-0.02639,-0.0827734,0.0
388660830,-0.530484,0.209303,-0.471835,-0.0050522,-0.02639,-0.0827734,0.0
388689616,-1.23182,0.26862,0.134994,-0.0050522,-0.02639,-0.0827734,0.0
388722444,0.373069,0.561974,0.341574,-0.0050522,-0.02639,-0.0827734,0.0
